{
"type": "FeatureCollection",
"name": "cinema_milano",
"crs": { "type": "name", "properties": { "name": "urn:ogc:def:crs:OGC:1.3:CRS84" } },
"features": [
{ "type": "Feature", "properties": { "ccomune": "Milano", "cprovincia": "MILANO", "cregione": "Lombardia", "cnome": "Anteo", "canno_inserimento": 2015, "cdata_e_ora_inserimento": "2015-01-24T09:07:50Z", "cidentificatore_in_openstreetmap": 252634867, "clongitudine": 9.1876422, "clatitudine": 45.4796945 }, "geometry": { "type": "Point", "coordinates": [ 9.1876422, 45.4796945 ] } },
{ "type": "Feature", "properties": { "ccomune": "Milano", "cprovincia": "MILANO", "cregione": "Lombardia", "cnome": "Apollo", "canno_inserimento": 2009, "cdata_e_ora_inserimento": "2009-07-06T12:41:54Z", "cidentificatore_in_openstreetmap": 435199449, "clongitudine": 9.1946808, "clatitudine": 45.4657452 }, "geometry": { "type": "Point", "coordinates": [ 9.1946808, 45.4657452 ] } },
{ "type": "Feature", "properties": { "ccomune": "Milano", "cprovincia": "MILANO", "cregione": "Lombardia", "cnome": "Arcobaleno Film Center", "canno_inserimento": 2015, "cdata_e_ora_inserimento": "2015-02-26T11:54:53Z", "cidentificatore_in_openstreetmap": 442138046, "clongitudine": 9.2056382, "clatitudine": 45.4770526 }, "geometry": { "type": "Point", "coordinates": [ 9.2056382, 45.4770526 ] } },
{ "type": "Feature", "properties": { "ccomune": "Milano", "cprovincia": "MILANO", "cregione": "Lombardia", "cnome": "Arena Umanitaria", "canno_inserimento": 2012, "cdata_e_ora_inserimento": "2012-10-21T22:26:58Z", "cidentificatore_in_openstreetmap": 1977225057, "clongitudine": 9.2010307, "clatitudine": 45.4594328 }, "geometry": { "type": "Point", "coordinates": [ 9.2010307, 45.4594328 ] } },
{ "type": "Feature", "properties": { "ccomune": "Milano", "cprovincia": "MILANO", "cregione": "Lombardia", "cnome": "Arianteo Conservatorio", "canno_inserimento": 2012, "cdata_e_ora_inserimento": "2012-10-21T22:26:58Z", "cidentificatore_in_openstreetmap": 1977225058, "clongitudine": 9.2034005, "clatitudine": 45.4647692 }, "geometry": { "type": "Point", "coordinates": [ 9.2034005, 45.4647691999999 ] } },
{ "type": "Feature", "properties": { "ccomune": "Milano", "cprovincia": "MILANO", "cregione": "Lombardia", "cnome": "Ariosto", "canno_inserimento": 2012, "cdata_e_ora_inserimento": "2012-01-20T21:58:26Z", "cidentificatore_in_openstreetmap": 442586656, "clongitudine": 9.1659955, "clatitudine": 45.4690707 }, "geometry": { "type": "Point", "coordinates": [ 9.1659955, 45.4690707 ] } },
{ "type": "Feature", "properties": { "ccomune": "Milano", "cprovincia": "MILANO", "cregione": "Lombardia", "cnome": "Arlecchino", "canno_inserimento": 2014, "cdata_e_ora_inserimento": "2014-08-09T21:10:45Z", "cidentificatore_in_openstreetmap": 2420779234, "clongitudine": 9.1953561, "clatitudine": 45.4663034 }, "geometry": { "type": "Point", "coordinates": [ 9.1953561, 45.4663034 ] } },
{ "type": "Feature", "properties": { "ccomune": "Milano", "cprovincia": "MILANO", "cregione": "Lombardia", "cnome": "Centrale", "canno_inserimento": 2012, "cdata_e_ora_inserimento": "2012-10-21T22:26:59Z", "cidentificatore_in_openstreetmap": 442587403, "clongitudine": 9.1857518, "clatitudine": 45.4622128 }, "geometry": { "type": "Point", "coordinates": [ 9.1857518, 45.4622128 ] } },
{ "type": "Feature", "properties": { "ccomune": "Milano", "cprovincia": "MILANO", "cregione": "Lombardia", "cnome": "Cinema Orchidea", "canno_inserimento": 2015, "cdata_e_ora_inserimento": "2015-11-17T08:46:26Z", "cidentificatore_in_openstreetmap": 3840440921, "clongitudine": 9.1764669, "clatitudine": 45.465690199999898 }, "geometry": { "type": "Point", "coordinates": [ 9.1764669, 45.465690199999898 ] } },
{ "type": "Feature", "properties": { "ccomune": "Milano", "cprovincia": "MILANO", "cregione": "Lombardia", "cnome": "Colosseo", "canno_inserimento": 2012, "cdata_e_ora_inserimento": "2012-01-27T16:47:01Z", "cidentificatore_in_openstreetmap": 442587550, "clongitudine": 9.2079373, "clatitudine": 45.461640099999897 }, "geometry": { "type": "Point", "coordinates": [ 9.2079373, 45.461640099999897 ] } },
{ "type": "Feature", "properties": { "ccomune": "Milano", "cprovincia": "MILANO", "cregione": "Lombardia", "cnome": "Don Bosco", "canno_inserimento": 2013, "cdata_e_ora_inserimento": "2013-11-28T09:25:50Z", "cidentificatore_in_openstreetmap": 358878181, "clongitudine": 9.1998057, "clatitudine": 45.488243099999899 }, "geometry": { "type": "Point", "coordinates": [ 9.1998057, 45.488243099999899 ] } },
{ "type": "Feature", "properties": { "ccomune": "Milano", "cprovincia": "MILANO", "cregione": "Lombardia", "cnome": "Ducale", "canno_inserimento": 2012, "cdata_e_ora_inserimento": "2012-10-21T22:26:59Z", "cidentificatore_in_openstreetmap": 29978509, "clongitudine": 9.1546299, "clatitudine": 45.452398 }, "geometry": { "type": "Point", "coordinates": [ 9.1546299, 45.452398 ] } },
{ "type": "Feature", "properties": { "ccomune": "Milano", "cprovincia": "MILANO", "cregione": "Lombardia", "cnome": "Eliseo", "canno_inserimento": 2012, "cdata_e_ora_inserimento": "2012-10-21T22:26:59Z", "cidentificatore_in_openstreetmap": 442588357, "clongitudine": 9.1825204, "clatitudine": 45.4608444 }, "geometry": { "type": "Point", "coordinates": [ 9.1825204, 45.4608443999999 ] } },
{ "type": "Feature", "properties": { "ccomune": "Milano", "cprovincia": "MILANO", "cregione": "Lombardia", "cnome": "Europlex Bicocca", "canno_inserimento": 2012, "cdata_e_ora_inserimento": "2012-09-21T18:44:21Z", "cidentificatore_in_openstreetmap": 250051812, "clongitudine": 9.2161433, "clatitudine": 45.521937299999898 }, "geometry": { "type": "Point", "coordinates": [ 9.2161433, 45.521937299999898 ] } },
{ "type": "Feature", "properties": { "ccomune": "Milano", "cprovincia": "MILANO", "cregione": "Lombardia", "cnome": "Garden", "canno_inserimento": 2014, "cdata_e_ora_inserimento": "2014-10-05T21:55:25Z", "cidentificatore_in_openstreetmap": 255138301, "clongitudine": 9.240539, "clatitudine": 45.4879746 }, "geometry": { "type": "Point", "coordinates": [ 9.240539, 45.4879746 ] } },
{ "type": "Feature", "properties": { "ccomune": "Milano", "cprovincia": "MILANO", "cregione": "Lombardia", "cnome": "Gloria", "canno_inserimento": 2012, "cdata_e_ora_inserimento": "2012-10-21T22:27:00Z", "cidentificatore_in_openstreetmap": 268616396, "clongitudine": 9.1618614, "clatitudine": 45.4665478 }, "geometry": { "type": "Point", "coordinates": [ 9.1618614, 45.4665478 ] } },
{ "type": "Feature", "properties": { "ccomune": "Milano", "cprovincia": "MILANO", "cregione": "Lombardia", "cnome": "Gnomo", "canno_inserimento": 2009, "cdata_e_ora_inserimento": "2009-07-16T14:46:52Z", "cidentificatore_in_openstreetmap": 442590118, "clongitudine": 9.1757248, "clatitudine": 45.4615625 }, "geometry": { "type": "Point", "coordinates": [ 9.1757248, 45.4615624999999 ] } },
{ "type": "Feature", "properties": { "ccomune": "Milano", "cprovincia": "MILANO", "cregione": "Lombardia", "cnome": "Mexico", "canno_inserimento": 2011, "cdata_e_ora_inserimento": "2011-11-07T14:42:40Z", "cidentificatore_in_openstreetmap": 442591065, "clongitudine": 9.1602902, "clatitudine": 45.452694 }, "geometry": { "type": "Point", "coordinates": [ 9.1602902, 45.452694 ] } },
{ "type": "Feature", "properties": { "ccomune": "Milano", "cprovincia": "MILANO", "cregione": "Lombardia", "cnome": "Odeon", "canno_inserimento": 2013, "cdata_e_ora_inserimento": "2013-06-03T14:52:30Z", "cidentificatore_in_openstreetmap": 251293086, "clongitudine": 9.192365, "clatitudine": 45.4651207 }, "geometry": { "type": "Point", "coordinates": [ 9.192365, 45.4651207 ] } },
{ "type": "Feature", "properties": { "ccomune": "Milano", "cprovincia": "MILANO", "cregione": "Lombardia", "cnome": "Orfeo", "canno_inserimento": 2012, "cdata_e_ora_inserimento": "2012-10-21T22:27:00Z", "cidentificatore_in_openstreetmap": 268616425, "clongitudine": 9.1695974, "clatitudine": 45.4568734 }, "geometry": { "type": "Point", "coordinates": [ 9.1695974, 45.4568733999999 ] } },
{ "type": "Feature", "properties": { "ccomune": "Milano", "cprovincia": "MILANO", "cregione": "Lombardia", "cnome": "Rosetum", "canno_inserimento": 2014, "cdata_e_ora_inserimento": "2014-12-20T20:42:57Z", "cidentificatore_in_openstreetmap": 995613962, "clongitudine": 9.1403155, "clatitudine": 45.467007099999897 }, "geometry": { "type": "Point", "coordinates": [ 9.1403155, 45.467007099999897 ] } },
{ "type": "Feature", "properties": { "ccomune": "Milano", "cprovincia": "MILANO", "cregione": "Lombardia", "cnome": "Spazio Oberdan", "canno_inserimento": 2013, "cdata_e_ora_inserimento": "2013-11-05T23:53:33Z", "cidentificatore_in_openstreetmap": 1977225059, "clongitudine": 9.2039666, "clatitudine": 45.475372299999897 }, "geometry": { "type": "Point", "coordinates": [ 9.2039666, 45.475372299999897 ] } },
{ "type": "Feature", "properties": { "ccomune": "Milano", "cprovincia": "MILANO", "cregione": "Lombardia", "cnome": "UCI Cinemas Certosa", "canno_inserimento": 2012, "cdata_e_ora_inserimento": "2012-11-29T13:20:10Z", "cidentificatore_in_openstreetmap": 714322674, "clongitudine": 9.1281504, "clatitudine": 45.509640099999899 }, "geometry": { "type": "Point", "coordinates": [ 9.1281504, 45.509640099999899 ] } }
]
}
