{
"type": "FeatureCollection",
"name": "cinema_milano",
"crs": { "type": "name", "properties": { "name": "urn:ogc:def:crs:OGC:1.3:CRS84" } },
"features": [
{ "type": "Feature", "properties": { "anno_inserimento": 2015, "nome": "Anteo", "longitudine": 9.1876422, "latitudine": 45.4796945, "MUNICIPIO": 1 }, "geometry": { "type": "Point", "coordinates": [ 9.1876422, 45.4796945 ] } },
{ "type": "Feature", "properties": { "anno_inserimento": 2009, "nome": "Apollo", "longitudine": 9.1946808, "latitudine": 45.4657452, "MUNICIPIO": 1 }, "geometry": { "type": "Point", "coordinates": [ 9.1946808, 45.4657452 ] } },
{ "type": "Feature", "properties": { "anno_inserimento": 2015, "nome": "Arcobaleno Film Center", "longitudine": 9.2056382, "latitudine": 45.4770526, "MUNICIPIO": 3 }, "geometry": { "type": "Point", "coordinates": [ 9.2056382, 45.4770526 ] } },
{ "type": "Feature", "properties": { "anno_inserimento": 2012, "nome": "Arena Umanitaria", "longitudine": 9.2010307, "latitudine": 45.4594328, "MUNICIPIO": 1 }, "geometry": { "type": "Point", "coordinates": [ 9.2010307, 45.4594328 ] } },
{ "type": "Feature", "properties": { "anno_inserimento": 2012, "nome": "Arianteo Conservatorio", "longitudine": 9.2034005, "latitudine": 45.4647692, "MUNICIPIO": 1 }, "geometry": { "type": "Point", "coordinates": [ 9.2034005, 45.4647691999999 ] } },
{ "type": "Feature", "properties": { "anno_inserimento": 2012, "nome": "Ariosto", "longitudine": 9.1659955, "latitudine": 45.4690707, "MUNICIPIO": 1 }, "geometry": { "type": "Point", "coordinates": [ 9.1659955, 45.4690707 ] } },
{ "type": "Feature", "properties": { "anno_inserimento": 2014, "nome": "Arlecchino", "longitudine": 9.1953561, "latitudine": 45.4663034, "MUNICIPIO": 1 }, "geometry": { "type": "Point", "coordinates": [ 9.1953561, 45.4663034 ] } },
{ "type": "Feature", "properties": { "anno_inserimento": 2012, "nome": "Centrale", "longitudine": 9.1857518, "latitudine": 45.4622128, "MUNICIPIO": 1 }, "geometry": { "type": "Point", "coordinates": [ 9.1857518, 45.4622128 ] } },
{ "type": "Feature", "properties": { "anno_inserimento": 2015, "nome": "Cinema Orchidea", "longitudine": 9.1764669, "latitudine": 45.465690199999898, "MUNICIPIO": 1 }, "geometry": { "type": "Point", "coordinates": [ 9.1764669, 45.465690199999898 ] } },
{ "type": "Feature", "properties": { "anno_inserimento": 2012, "nome": "Colosseo", "longitudine": 9.2079373, "latitudine": 45.461640099999897, "MUNICIPIO": 4 }, "geometry": { "type": "Point", "coordinates": [ 9.2079373, 45.461640099999897 ] } },
{ "type": "Feature", "properties": { "anno_inserimento": 2013, "nome": "Don Bosco", "longitudine": 9.1998057, "latitudine": 45.488243099999899, "MUNICIPIO": 2 }, "geometry": { "type": "Point", "coordinates": [ 9.1998057, 45.488243099999899 ] } },
{ "type": "Feature", "properties": { "anno_inserimento": 2012, "nome": "Ducale", "longitudine": 9.1546299, "latitudine": 45.452398, "MUNICIPIO": 6 }, "geometry": { "type": "Point", "coordinates": [ 9.1546299, 45.452398 ] } },
{ "type": "Feature", "properties": { "anno_inserimento": 2012, "nome": "Eliseo", "longitudine": 9.1825204, "latitudine": 45.4608444, "MUNICIPIO": 1 }, "geometry": { "type": "Point", "coordinates": [ 9.1825204, 45.4608443999999 ] } },
{ "type": "Feature", "properties": { "anno_inserimento": 2012, "nome": "Europlex Bicocca", "longitudine": 9.2161433, "latitudine": 45.521937299999898, "MUNICIPIO": 9 }, "geometry": { "type": "Point", "coordinates": [ 9.2161433, 45.521937299999898 ] } },
{ "type": "Feature", "properties": { "anno_inserimento": 2014, "nome": "Garden", "longitudine": 9.240539, "latitudine": 45.4879746, "MUNICIPIO": 3 }, "geometry": { "type": "Point", "coordinates": [ 9.240539, 45.4879746 ] } },
{ "type": "Feature", "properties": { "anno_inserimento": 2012, "nome": "Gloria", "longitudine": 9.1618614, "latitudine": 45.4665478, "MUNICIPIO": 7 }, "geometry": { "type": "Point", "coordinates": [ 9.1618614, 45.4665478 ] } },
{ "type": "Feature", "properties": { "anno_inserimento": 2009, "nome": "Gnomo", "longitudine": 9.1757248, "latitudine": 45.4615625, "MUNICIPIO": 1 }, "geometry": { "type": "Point", "coordinates": [ 9.1757248, 45.4615624999999 ] } },
{ "type": "Feature", "properties": { "anno_inserimento": 2011, "nome": "Mexico", "longitudine": 9.1602902, "latitudine": 45.452694, "MUNICIPIO": 6 }, "geometry": { "type": "Point", "coordinates": [ 9.1602902, 45.452694 ] } },
{ "type": "Feature", "properties": { "anno_inserimento": 2013, "nome": "Odeon", "longitudine": 9.192365, "latitudine": 45.4651207, "MUNICIPIO": 1 }, "geometry": { "type": "Point", "coordinates": [ 9.192365, 45.4651207 ] } },
{ "type": "Feature", "properties": { "anno_inserimento": 2012, "nome": "Orfeo", "longitudine": 9.1695974, "latitudine": 45.4568734, "MUNICIPIO": 6 }, "geometry": { "type": "Point", "coordinates": [ 9.1695974, 45.4568733999999 ] } },
{ "type": "Feature", "properties": { "anno_inserimento": 2014, "nome": "Rosetum", "longitudine": 9.1403155, "latitudine": 45.467007099999897, "MUNICIPIO": 7 }, "geometry": { "type": "Point", "coordinates": [ 9.1403155, 45.467007099999897 ] } },
{ "type": "Feature", "properties": { "anno_inserimento": 2013, "nome": "Spazio Oberdan", "longitudine": 9.2039666, "latitudine": 45.475372299999897, "MUNICIPIO": 3 }, "geometry": { "type": "Point", "coordinates": [ 9.2039666, 45.475372299999897 ] } },
{ "type": "Feature", "properties": { "anno_inserimento": 2012, "nome": "UCI Cinemas Certosa", "longitudine": 9.1281504, "latitudine": 45.509640099999899, "MUNICIPIO": 8 }, "geometry": { "type": "Point", "coordinates": [ 9.1281504, 45.509640099999899 ] } }
]
}
