{
"type": "FeatureCollection",
"name": "scuole_clean",
"crs": { "type": "name", "properties": { "name": "urn:ogc:def:crs:OGC:1.3:CRS84" } },
"features": [
{ "type": "Feature", "properties": { "Denominazione": "St. Joseph's International College", "Grado": "Scuola primaria", "Indirizzo": "Viale MONZA 261", "MUNICIPIO": 2, "Quartiere": "GORLA - PRECOTTO", "Longitudine": 9.2234146426900008, "Latitudine": 45.511886375400003, "NIL": null, "icon": "id-card" }, "geometry": { "type": "Point", "coordinates": [ 9.223414642690001, 45.511886375400003 ] } },
{ "type": "Feature", "properties": { "Denominazione": "VIVAIO", "Grado": "Scuola secondaria - Primo grado", "Indirizzo": "Viale GABRIELE D'ANNUNZIO 15", "MUNICIPIO": 1, "Quartiere": "PORTA TICINESE - CONCA DEL NAVIGLIO", "Longitudine": 9.1763218581100006, "Latitudine": 45.4540139012, "NIL": null, "icon": "id-card" }, "geometry": { "type": "Point", "coordinates": [ 9.176321858110001, 45.4540139012 ] } },
{ "type": "Feature", "properties": { "Denominazione": "IPAA", "Grado": "Scuola secondaria - Secondo grado", "Indirizzo": "VIA LITTA MODIGNANI ALESSANDRO 55", "MUNICIPIO": 9, "Quartiere": null, "Longitudine": 9.1607505136146603, "Latitudine": 45.522854756171597, "NIL": "BOVISASCA", "icon": "id-card" }, "geometry": { "type": "Point", "coordinates": [ 9.16075051361466, 45.522854756171597 ] } },
{ "type": "Feature", "properties": { "Denominazione": "IPIA G.FERRARIS-A.PACINOTTI", "Grado": "Scuola secondaria - Secondo grado", "Indirizzo": "VIA CARCHIDIO FRANCESCO 2", "MUNICIPIO": 1, "Quartiere": null, "Longitudine": 9.1719009726976601, "Latitudine": 45.4558270996815, "NIL": "MAGENTA - S. VITTORE", "icon": "id-card" }, "geometry": { "type": "Point", "coordinates": [ 9.17190097269766, 45.4558270996815 ] } },
{ "type": "Feature", "properties": { "Denominazione": "IPIA E.MARELLI", "Grado": "Scuola secondaria - Secondo grado", "Indirizzo": "VIA LIVIGNO 11", "MUNICIPIO": 9, "Quartiere": null, "Longitudine": 9.1781010362168995, "Latitudine": 45.5004997923619, "NIL": "DERGANO", "icon": "id-card" }, "geometry": { "type": "Point", "coordinates": [ 9.1781010362169, 45.5004997923619 ] } },
{ "type": "Feature", "properties": { "Denominazione": "ITI GRAFICO PAVONIANO", "Grado": "Scuola secondaria - Secondo grado", "Indirizzo": "VIA CRESPI BENIGNO 30", "MUNICIPIO": 9, "Quartiere": null, "Longitudine": 9.1854754114092696, "Latitudine": 45.501620939680102, "NIL": "DERGANO", "icon": "id-card" }, "geometry": { "type": "Point", "coordinates": [ 9.18547541140927, 45.501620939680102 ] } },
{ "type": "Feature", "properties": { "Denominazione": "IPIA SETTEMBRINI", "Grado": "Scuola secondaria - Secondo grado", "Indirizzo": "VIA DELEDDA GRAZIA 11", "MUNICIPIO": 2, "Quartiere": null, "Longitudine": 9.2159393490797203, "Latitudine": 45.487660051318301, "NIL": "LORETO - CASORETTO - NOLO", "icon": "id-card" }, "geometry": { "type": "Point", "coordinates": [ 9.21593934907972, 45.487660051318301 ] } },
{ "type": "Feature", "properties": { "Denominazione": "IPIA CIVICO SERALE", "Grado": "Scuola secondaria - Secondo grado", "Indirizzo": "VIA RUBATTINO RAFFAELE 6", "MUNICIPIO": 3, "Quartiere": null, "Longitudine": 9.2488046456734896, "Latitudine": 45.476524362387202, "NIL": "LAMBRATE - ORTICA", "icon": "id-card" }, "geometry": { "type": "Point", "coordinates": [ 9.24880464567349, 45.476524362387202 ] } },
{ "type": "Feature", "properties": { "Denominazione": "IPIA G.CASATI", "Grado": "Scuola secondaria - Secondo grado", "Indirizzo": "VIA PADOVA 116", "MUNICIPIO": 2, "Quartiere": null, "Longitudine": 9.2309181509467102, "Latitudine": 45.496122861188198, "NIL": "PADOVA - TURRO - CRESCENZAGO", "icon": "id-card" }, "geometry": { "type": "Point", "coordinates": [ 9.23091815094671, 45.496122861188198 ] } },
{ "type": "Feature", "properties": { "Denominazione": "IST. PROF. IND. ARTIGIANALE LUXEMBURG", "Grado": "Scuola secondaria - Secondo grado", "Indirizzo": "VIA CABELLA BARTOLOMEO 46", "MUNICIPIO": 7, "Quartiere": null, "Longitudine": 9.0912484162080691, "Latitudine": 45.458689607053003, "NIL": "BAGGIO - Q.RE DEGLI OLMI - Q.RE VALSESIA", "icon": "id-card" }, "geometry": { "type": "Point", "coordinates": [ 9.091248416208069, 45.458689607053003 ] } },
{ "type": "Feature", "properties": { "Denominazione": "IPIA C.CORRENTI", "Grado": "Scuola secondaria - Secondo grado", "Indirizzo": "VIA ALCUINO 4", "MUNICIPIO": 8, "Quartiere": null, "Longitudine": 9.1562449793070595, "Latitudine": 45.481989020538201, "NIL": "PORTELLO", "icon": "id-card" }, "geometry": { "type": "Point", "coordinates": [ 9.156244979307059, 45.481989020538201 ] } },
{ "type": "Feature", "properties": { "Denominazione": "IPSSCT L.V.BERTARELLI", "Grado": "Scuola secondaria - Secondo grado", "Indirizzo": "CSO DI PORTA ROMANA 110", "MUNICIPIO": 1, "Quartiere": null, "Longitudine": 9.1976458167875297, "Latitudine": 45.454812563290403, "NIL": "PORTA VIGENTINA - PORTA LODOVICA", "icon": "id-card" }, "geometry": { "type": "Point", "coordinates": [ 9.19764581678753, 45.454812563290403 ] } },
{ "type": "Feature", "properties": { "Denominazione": "IPSSCTS B.CAVALIERI", "Grado": "Scuola secondaria - Secondo grado", "Indirizzo": "VIA OLONA 14", "MUNICIPIO": 1, "Quartiere": null, "Longitudine": 9.1711778355185594, "Latitudine": 45.459992061202499, "NIL": "MAGENTA - S. VITTORE", "icon": "id-card" }, "geometry": { "type": "Point", "coordinates": [ 9.171177835518559, 45.459992061202499 ] } },
{ "type": "Feature", "properties": { "Denominazione": "IPSSCT D.MARIGNONI-M.POLO", "Grado": "Scuola secondaria - Secondo grado", "Indirizzo": "VIA MELZI D'ERIL FRANCESCO 9", "MUNICIPIO": 1, "Quartiere": null, "Longitudine": 9.1733786580789101, "Latitudine": 45.478107737558197, "NIL": "SARPI", "icon": "id-card" }, "geometry": { "type": "Point", "coordinates": [ 9.17337865807891, 45.478107737558197 ] } },
{ "type": "Feature", "properties": { "Denominazione": "IPSSCT B.ORIANI-G.MAZZINI", "Grado": "Scuola secondaria - Secondo grado", "Indirizzo": "VIA ZANTE 34", "MUNICIPIO": 4, "Quartiere": null, "Longitudine": 9.2481876626536597, "Latitudine": 45.459175035414901, "NIL": "TALIEDO - MORSENCHIO - Q.RE FORLANINI", "icon": "id-card" }, "geometry": { "type": "Point", "coordinates": [ 9.24818766265366, 45.459175035414901 ] } },
{ "type": "Feature", "properties": { "Denominazione": "IPSSCT P.FRISI", "Grado": "Scuola secondaria - Secondo grado", "Indirizzo": "VIA OTRANTO 1", "MUNICIPIO": 8, "Quartiere": null, "Longitudine": 9.1310122545940597, "Latitudine": 45.514510119489699, "NIL": "QUARTO OGGIARO - VIALBA - MUSOCCO", "icon": "id-card" }, "geometry": { "type": "Point", "coordinates": [ 9.13101225459406, 45.514510119489699 ] } },
{ "type": "Feature", "properties": { "Denominazione": "IPSSAR A.VESPUCCI", "Grado": "Scuola secondaria - Secondo grado", "Indirizzo": "VIA VALVASSORI PERONI CARLO 8", "MUNICIPIO": 3, "Quartiere": null, "Longitudine": 9.23681900375224, "Latitudine": 45.474072773058602, "NIL": "CITTA' STUDI", "icon": "id-card" }, "geometry": { "type": "Point", "coordinates": [ 9.23681900375224, 45.474072773058602 ] } },
{ "type": "Feature", "properties": { "Denominazione": "IPSSAR C.PORTA", "Grado": "Scuola secondaria - Secondo grado", "Indirizzo": "VIA URUGUAY 26 2", "MUNICIPIO": 8, "Quartiere": null, "Longitudine": 9.1197589858932293, "Latitudine": 45.497301403695701, "NIL": "Q.RE GALLARATESE - Q.RE SAN LEONARDO - LAMPUGNANO", "icon": "id-card" }, "geometry": { "type": "Point", "coordinates": [ 9.119758985893229, 45.497301403695701 ] } },
{ "type": "Feature", "properties": { "Denominazione": "IPSS GIOVANNI XXIII", "Grado": "Scuola secondaria - Secondo grado", "Indirizzo": "VIA TERMOPILI 7", "MUNICIPIO": 2, "Quartiere": null, "Longitudine": 9.2199768653718195, "Latitudine": 45.491440062912297, "NIL": "LORETO - CASORETTO - NOLO", "icon": "id-card" }, "geometry": { "type": "Point", "coordinates": [ 9.219976865371819, 45.491440062912297 ] } },
{ "type": "Feature", "properties": { "Denominazione": "IPSCP CATERINA DA SIENA", "Grado": "Scuola secondaria - Secondo grado", "Indirizzo": "VLE LOMBARDIA 89", "MUNICIPIO": 3, "Quartiere": null, "Longitudine": 9.2232990013529594, "Latitudine": 45.488203264125701, "NIL": "LORETO - CASORETTO - NOLO", "icon": "id-card" }, "geometry": { "type": "Point", "coordinates": [ 9.223299001352959, 45.488203264125701 ] } },
{ "type": "Feature", "properties": { "Denominazione": "IMS V.KANDINSKY", "Grado": "Scuola secondaria - Secondo grado", "Indirizzo": "VIA BARONI COSTANTINO 35", "MUNICIPIO": 5, "Quartiere": null, "Longitudine": 9.1722635258812897, "Latitudine": 45.4099451194148, "NIL": "GRATOSOGLIO - Q.RE MISSAGLIA - Q.RE TERRAZZE", "icon": "id-card" }, "geometry": { "type": "Point", "coordinates": [ 9.17226352588129, 45.4099451194148 ] } },
{ "type": "Feature", "properties": { "Denominazione": "IPSCP M.DUDOVICH", "Grado": "Scuola secondaria - Secondo grado", "Indirizzo": "VIA AMORETTI CARLO 63", "MUNICIPIO": 8, "Quartiere": null, "Longitudine": 9.1425275443024496, "Latitudine": 45.5209842869845, "NIL": "QUARTO OGGIARO - VIALBA - MUSOCCO", "icon": "id-card" }, "geometry": { "type": "Point", "coordinates": [ 9.14252754430245, 45.5209842869845 ] } },
{ "type": "Feature", "properties": { "Denominazione": "ITI CARLO BAZZI", "Grado": "Scuola secondaria - Secondo grado", "Indirizzo": "VIA CAPPUCCIO 2", "MUNICIPIO": 1, "Quartiere": null, "Longitudine": 9.1799534853013203, "Latitudine": 45.461751396372101, "NIL": "DUOMO", "icon": "id-card" }, "geometry": { "type": "Point", "coordinates": [ 9.17995348530132, 45.461751396372101 ] } },
{ "type": "Feature", "properties": { "Denominazione": "ITI DON BOSCO", "Grado": "Scuola secondaria - Secondo grado", "Indirizzo": "VIA TONALE 19", "MUNICIPIO": 2, "Quartiere": null, "Longitudine": 9.2013749586705806, "Latitudine": 45.4893358630585, "NIL": "STAZIONE CENTRALE - PONTE SEVESO", "icon": "id-card" }, "geometry": { "type": "Point", "coordinates": [ 9.201374958670581, 45.4893358630585 ] } },
{ "type": "Feature", "properties": { "Denominazione": "ITIS G.FELTRINELLI", "Grado": "Scuola secondaria - Secondo grado", "Indirizzo": "PZA CARO TITO LUCREZIO 8", "MUNICIPIO": 5, "Quartiere": null, "Longitudine": 9.1833086385388505, "Latitudine": 45.448581109500097, "NIL": "PORTA TICINESE - CONCA DEL NAVIGLIO", "icon": "id-card" }, "geometry": { "type": "Point", "coordinates": [ 9.18330863853885, 45.448581109500097 ] } },
{ "type": "Feature", "properties": { "Denominazione": "ITIS G.GIORGI", "Grado": "Scuola secondaria - Secondo grado", "Indirizzo": "VLE LIGURIA 21", "MUNICIPIO": 6, "Quartiere": null, "Longitudine": 9.1701200614247806, "Latitudine": 45.4441556752111, "NIL": "PORTA TICINESE - CONCHETTA", "icon": "id-card" }, "geometry": { "type": "Point", "coordinates": [ 9.170120061424781, 45.4441556752111 ] } },
{ "type": "Feature", "properties": { "Denominazione": "ITIS L.GALVANI", "Grado": "Scuola secondaria - Secondo grado", "Indirizzo": "VIA GATTI FRANCESCO 14", "MUNICIPIO": 9, "Quartiere": null, "Longitudine": 9.1909864328096091, "Latitudine": 45.506528918996302, "NIL": "NIGUARDA - CA' GRANDA - PRATO CENTENARO - Q.RE FULVIO TESTI", "icon": "id-card" }, "geometry": { "type": "Point", "coordinates": [ 9.190986432809609, 45.506528918996302 ] } },
{ "type": "Feature", "properties": { "Denominazione": "IISS J.C.MAXWELL", "Grado": "Scuola secondaria - Secondo grado", "Indirizzo": "VIA CALABRIA DON GIOVANNI 2", "MUNICIPIO": 3, "Quartiere": null, "Longitudine": 9.2396250163513205, "Latitudine": 45.497509825423997, "NIL": "CIMIANO - ROTTOLE - Q.RE FELTRE", "icon": "id-card" }, "geometry": { "type": "Point", "coordinates": [ 9.23962501635132, 45.497509825423997 ] } },
{ "type": "Feature", "properties": { "Denominazione": "ITIS E.MOLINARI", "Grado": "Scuola secondaria - Secondo grado", "Indirizzo": "VIA CRESCENZAGO 110", "MUNICIPIO": 3, "Quartiere": null, "Longitudine": 9.2397679740036693, "Latitudine": 45.496783597541899, "NIL": "CIMIANO - ROTTOLE - Q.RE FELTRE", "icon": "id-card" }, "geometry": { "type": "Point", "coordinates": [ 9.239767974003669, 45.496783597541899 ] } },
{ "type": "Feature", "properties": { "Denominazione": "ITIS E. TORRICELLI", "Grado": "Scuola secondaria - Secondo grado", "Indirizzo": "VIA DINI ULISSE 7", "MUNICIPIO": 5, "Quartiere": null, "Longitudine": 9.1798240017120207, "Latitudine": 45.4291987541814, "NIL": "STADERA - CHIESA ROSSA - Q.RE TORRETTA - CONCA FALLATA", "icon": "id-card" }, "geometry": { "type": "Point", "coordinates": [ 9.179824001712021, 45.4291987541814 ] } },
{ "type": "Feature", "properties": { "Denominazione": "ITIS M.CURIE", "Grado": "Scuola secondaria - Secondo grado", "Indirizzo": "VIA F.LLI ZOIA 130", "MUNICIPIO": 7, "Quartiere": null, "Longitudine": 9.1095999378221997, "Latitudine": 45.468925458144803, "NIL": "FORZE ARMATE", "icon": "id-card" }, "geometry": { "type": "Point", "coordinates": [ 9.1095999378222, 45.468925458144803 ] } },
{ "type": "Feature", "properties": { "Denominazione": "IISS CONTI", "Grado": "Scuola secondaria - Secondo grado", "Indirizzo": "VIA DE VINCENTI ANGELO 11", "MUNICIPIO": 7, "Quartiere": null, "Longitudine": 9.1410103779112397, "Latitudine": 45.477065764947497, "NIL": "SAN SIRO", "icon": "id-card" }, "geometry": { "type": "Point", "coordinates": [ 9.14101037791124, 45.477065764947497 ] } },
{ "type": "Feature", "properties": { "Denominazione": "ITIS GALILEO GALILEI", "Grado": "Scuola secondaria - Secondo grado", "Indirizzo": "VIA PARAVIA PIER ALESSANDRO 31", "MUNICIPIO": 7, "Quartiere": null, "Longitudine": 9.1308324491640604, "Latitudine": 45.471457347360598, "NIL": "STADIO - IPPODROMI", "icon": "id-card" }, "geometry": { "type": "Point", "coordinates": [ 9.13083244916406, 45.471457347360598 ] } },
{ "type": "Feature", "properties": { "Denominazione": "IISS GIUSEPPE LUIGI LAGRANGE", "Grado": "Scuola secondaria - Secondo grado", "Indirizzo": "VIA LITTA MODIGNANI ALESSANDRO 65", "MUNICIPIO": 9, "Quartiere": null, "Longitudine": 9.1564307440366406, "Latitudine": 45.5220233391383, "NIL": "BOVISASCA", "icon": "id-card" }, "geometry": { "type": "Point", "coordinates": [ 9.156430744036641, 45.5220233391383 ] } },
{ "type": "Feature", "properties": { "Denominazione": "ITA  LINDBERGH FLYING SCHOOL", "Grado": "Scuola secondaria - Secondo grado", "Indirizzo": "VIA CURTATONE 12", "MUNICIPIO": 1, "Quartiere": null, "Longitudine": 9.2023417774117604, "Latitudine": 45.456032771640601, "NIL": "GUASTALLA", "icon": "id-card" }, "geometry": { "type": "Point", "coordinates": [ 9.20234177741176, 45.456032771640601 ] } },
{ "type": "Feature", "properties": { "Denominazione": "ITC C.CATTANEO", "Grado": "Scuola secondaria - Secondo grado", "Indirizzo": "PZA VETRA 9", "MUNICIPIO": 1, "Quartiere": null, "Longitudine": 9.1829718634179596, "Latitudine": 45.458721814410197, "NIL": "DUOMO", "icon": "id-card" }, "geometry": { "type": "Point", "coordinates": [ 9.18297186341796, 45.458721814410197 ] } },
{ "type": "Feature", "properties": { "Denominazione": "ITC COLLEGIO S.CARLO", "Grado": "Scuola secondaria - Secondo grado", "Indirizzo": "CSO MAGENTA 71", "MUNICIPIO": 1, "Quartiere": null, "Longitudine": 9.1697722843861307, "Latitudine": 45.465581540940597, "NIL": "MAGENTA - S. VITTORE", "icon": "id-card" }, "geometry": { "type": "Point", "coordinates": [ 9.169772284386131, 45.465581540940597 ] } },
{ "type": "Feature", "properties": { "Denominazione": "ITC GIACOMO LEOPARDI", "Grado": "Scuola secondaria - Secondo grado", "Indirizzo": "VIA ARENA 9", "MUNICIPIO": 1, "Quartiere": null, "Longitudine": 9.1799166683577305, "Latitudine": 45.456701291042698, "NIL": "PORTA TICINESE - CONCA DEL NAVIGLIO", "icon": "id-card" }, "geometry": { "type": "Point", "coordinates": [ 9.17991666835773, 45.456701291042698 ] } },
{ "type": "Feature", "properties": { "Denominazione": "ITC LEONARDO DA VINCI", "Grado": "Scuola secondaria - Secondo grado", "Indirizzo": "VIA CORRIDONI FILIPPO 39", "MUNICIPIO": 1, "Quartiere": null, "Longitudine": 9.2041888735190103, "Latitudine": 45.463708988717698, "NIL": "GUASTALLA", "icon": "id-card" }, "geometry": { "type": "Point", "coordinates": [ 9.20418887351901, 45.463708988717698 ] } },
{ "type": "Feature", "properties": { "Denominazione": "ITC EDMONDO DE AMICIS", "Grado": "Scuola secondaria - Secondo grado", "Indirizzo": "VIA LAMARMORA ALFONSO 34", "MUNICIPIO": 1, "Quartiere": null, "Longitudine": 9.2016452603592498, "Latitudine": 45.456841484147702, "NIL": "GUASTALLA", "icon": "id-card" }, "geometry": { "type": "Point", "coordinates": [ 9.20164526035925, 45.456841484147702 ] } },
{ "type": "Feature", "properties": { "Denominazione": "ITC ZAPPA", "Grado": "Scuola secondaria - Secondo grado", "Indirizzo": "VLE MARCHE 71", "MUNICIPIO": 9, "Quartiere": null, "Longitudine": 9.1913449711654298, "Latitudine": 45.496095617536298, "NIL": "ISOLA", "icon": "id-card" }, "geometry": { "type": "Point", "coordinates": [ 9.19134497116543, 45.496095617536298 ] } },
{ "type": "Feature", "properties": { "Denominazione": "ITC MARIA CONSOLATRICE", "Grado": "Scuola secondaria - Secondo grado", "Indirizzo": "VIA GIOIA MELCHIORRE 51", "MUNICIPIO": 2, "Quartiere": null, "Longitudine": 9.1984207397984008, "Latitudine": 45.487614185309702, "NIL": "ISOLA", "icon": "id-card" }, "geometry": { "type": "Point", "coordinates": [ 9.198420739798401, 45.487614185309702 ] } },
{ "type": "Feature", "properties": { "Denominazione": "ITC P. VERRI", "Grado": "Scuola secondaria - Secondo grado", "Indirizzo": "VIA LATTANZIO 38", "MUNICIPIO": 4, "Quartiere": null, "Longitudine": 9.2161166952236293, "Latitudine": 45.4515819494722, "NIL": "UMBRIA - MOLISE - CALVAIRATE", "icon": "id-card" }, "geometry": { "type": "Point", "coordinates": [ 9.216116695223629, 45.4515819494722 ] } },
{ "type": "Feature", "properties": { "Denominazione": "ITC MILANO", "Grado": "Scuola secondaria - Secondo grado", "Indirizzo": "VIA GUINIZELLI GUIDO 4", "MUNICIPIO": 2, "Quartiere": null, "Longitudine": 9.2191910559088104, "Latitudine": 45.489248526986799, "NIL": "LORETO - CASORETTO - NOLO", "icon": "id-card" }, "geometry": { "type": "Point", "coordinates": [ 9.21919105590881, 45.489248526986799 ] } },
{ "type": "Feature", "properties": { "Denominazione": "ITC NICOLA MORESCHI", "Grado": "Scuola secondaria - Secondo grado", "Indirizzo": "VLE SAN MICHELE DEL CARSO 25", "MUNICIPIO": 1, "Quartiere": null, "Longitudine": 9.1639715591811193, "Latitudine": 45.462788654761603, "NIL": "MAGENTA - S. VITTORE", "icon": "id-card" }, "geometry": { "type": "Point", "coordinates": [ 9.163971559181119, 45.462788654761603 ] } },
{ "type": "Feature", "properties": { "Denominazione": "ITC SCHIAPARELLI - GRAMSCI", "Grado": "Scuola secondaria - Secondo grado", "Indirizzo": "VIA SETTEMBRINI LUIGI 4", "MUNICIPIO": 3, "Quartiere": null, "Longitudine": 9.2048284425944509, "Latitudine": 45.480460967197402, "NIL": "BUENOS AIRES - PORTA VENEZIA - PORTA MONFORTE", "icon": "id-card" }, "geometry": { "type": "Point", "coordinates": [ 9.204828442594451, 45.480460967197402 ] } },
{ "type": "Feature", "properties": { "Denominazione": "IISS F.BESTA", "Grado": "Scuola secondaria - Secondo grado", "Indirizzo": "VIA CALABRIA DON GIOVANNI 16", "MUNICIPIO": 3, "Quartiere": null, "Longitudine": 9.2418349609102002, "Latitudine": 45.499236646076902, "NIL": "CIMIANO - ROTTOLE - Q.RE FELTRE", "icon": "id-card" }, "geometry": { "type": "Point", "coordinates": [ 9.2418349609102, 45.499236646076902 ] } },
{ "type": "Feature", "properties": { "Denominazione": "ITC CASSINIS", "Grado": "Scuola secondaria - Secondo grado", "Indirizzo": "VIA NATTA GIULIO 11", "MUNICIPIO": 8, "Quartiere": null, "Longitudine": 9.1250702073437999, "Latitudine": 45.488932200028302, "NIL": "Q.RE GALLARATESE - Q.RE SAN LEONARDO - LAMPUGNANO", "icon": "id-card" }, "geometry": { "type": "Point", "coordinates": [ 9.1250702073438, 45.488932200028302 ] } },
{ "type": "Feature", "properties": { "Denominazione": "ITG MILANO  M.TIRELLI", "Grado": "Scuola secondaria - Secondo grado", "Indirizzo": "VIA ARENA 13", "MUNICIPIO": 1, "Quartiere": null, "Longitudine": 9.1793534079952401, "Latitudine": 45.455871559651897, "NIL": "PORTA TICINESE - CONCA DEL NAVIGLIO", "icon": "id-card" }, "geometry": { "type": "Point", "coordinates": [ 9.17935340799524, 45.455871559651897 ] } },
{ "type": "Feature", "properties": { "Denominazione": "ITT Sr. MARCELLINE", "Grado": "Scuola secondaria - Secondo grado", "Indirizzo": "PZA TOMMASEO NICOLO' 1", "MUNICIPIO": 1, "Quartiere": null, "Longitudine": 9.1672377666833391, "Latitudine": 45.469577619549803, "NIL": "MAGENTA - S. VITTORE", "icon": "id-card" }, "geometry": { "type": "Point", "coordinates": [ 9.167237766683339, 45.469577619549803 ] } },
{ "type": "Feature", "properties": { "Denominazione": "PACLE  A. MANZONI CIVICO", "Grado": "Scuola secondaria - Secondo grado", "Indirizzo": "VIA MARSALA 8", "MUNICIPIO": 1, "Quartiere": null, "Longitudine": 9.1871679275827294, "Latitudine": 45.4788596070346, "NIL": "BRERA", "icon": "id-card" }, "geometry": { "type": "Point", "coordinates": [ 9.187167927582729, 45.4788596070346 ] } },
{ "type": "Feature", "properties": { "Denominazione": "ITSOS  A.STEINER", "Grado": "Scuola secondaria - Secondo grado", "Indirizzo": "VIA SAN DIONIGI 36", "MUNICIPIO": 5, "Quartiere": null, "Longitudine": 9.2187413064163195, "Latitudine": 45.433428579501403, "NIL": "SCALO ROMANA", "icon": "id-card" }, "geometry": { "type": "Point", "coordinates": [ 9.21874130641632, 45.433428579501403 ] } },
{ "type": "Feature", "properties": { "Denominazione": "IM MARIA VIGANO'", "Grado": "Scuola secondaria - Secondo grado", "Indirizzo": "VIA RICCARDI PADRE PLACIDO 5", "MUNICIPIO": 2, "Quartiere": null, "Longitudine": 9.2389721564042002, "Latitudine": 45.501436423079603, "NIL": "PADOVA - TURRO - CRESCENZAGO", "icon": "id-card" }, "geometry": { "type": "Point", "coordinates": [ 9.2389721564042, 45.501436423079603 ] } },
{ "type": "Feature", "properties": { "Denominazione": "IMS C.TENCA", "Grado": "Scuola secondaria - Secondo grado", "Indirizzo": "BST DI PORTA VOLTA 16", "MUNICIPIO": 1, "Quartiere": null, "Longitudine": 9.1814187015359199, "Latitudine": 45.479278411269902, "NIL": "SARPI", "icon": "id-card" }, "geometry": { "type": "Point", "coordinates": [ 9.18141870153592, 45.479278411269902 ] } },
{ "type": "Feature", "properties": { "Denominazione": "IMS VIRGILIO", "Grado": "Scuola secondaria - Secondo grado", "Indirizzo": "PZA ASCOLI GRAZIADIO ISAIA 2", "MUNICIPIO": 3, "Quartiere": null, "Longitudine": 9.2174455391411403, "Latitudine": 45.472890746906401, "NIL": "BUENOS AIRES - PORTA VENEZIA - PORTA MONFORTE", "icon": "id-card" }, "geometry": { "type": "Point", "coordinates": [ 9.21744553914114, 45.472890746906401 ] } },
{ "type": "Feature", "properties": { "Denominazione": "IM CIVICO SOCIO PSICOPEDAGOGICO SERALE", "Grado": "Scuola secondaria - Secondo grado", "Indirizzo": "PZA VENTICINQUE APRILE 8", "MUNICIPIO": 1, "Quartiere": null, "Longitudine": 9.1876952389084003, "Latitudine": 45.480088549786998, "NIL": "BRERA", "icon": "id-card" }, "geometry": { "type": "Point", "coordinates": [ 9.1876952389084, 45.480088549786998 ] } },
{ "type": "Feature", "properties": { "Denominazione": "IMS AGNESI", "Grado": "Scuola secondaria - Secondo grado", "Indirizzo": "VIA TABACCHI ODOARDO 17", "MUNICIPIO": 5, "Quartiere": null, "Longitudine": 9.1824238981450499, "Latitudine": 45.447781745055302, "NIL": "PORTA TICINESE - CONCA DEL NAVIGLIO", "icon": "id-card" }, "geometry": { "type": "Point", "coordinates": [ 9.18242389814505, 45.447781745055302 ] } },
{ "type": "Feature", "properties": { "Denominazione": "LSP SACRO CUORE - LEOPARDI", "Grado": "Scuola secondaria - Secondo grado", "Indirizzo": "VIA CRESPI DANIELE 9", "MUNICIPIO": 1, "Quartiere": null, "Longitudine": 9.1741789531187194, "Latitudine": 45.4572164306242, "NIL": "MAGENTA - S. VITTORE", "icon": "id-card" }, "geometry": { "type": "Point", "coordinates": [ 9.174178953118719, 45.4572164306242 ] } },
{ "type": "Feature", "properties": { "Denominazione": "LSS LEONARDO DA VINCI", "Grado": "Scuola secondaria - Secondo grado", "Indirizzo": "VIA RESPIGHI OTTORINO 5", "MUNICIPIO": 1, "Quartiere": null, "Longitudine": 9.2026348323796192, "Latitudine": 45.463199278231897, "NIL": "GUASTALLA", "icon": "id-card" }, "geometry": { "type": "Point", "coordinates": [ 9.202634832379619, 45.463199278231897 ] } },
{ "type": "Feature", "properties": { "Denominazione": "LS ISTITUTO ZACCARIA", "Grado": "Scuola secondaria - Secondo grado", "Indirizzo": "VIA DELLA COMMENDA 5", "MUNICIPIO": 1, "Quartiere": null, "Longitudine": 9.1988609529916303, "Latitudine": 45.4591768595565, "NIL": "GUASTALLA", "icon": "id-card" }, "geometry": { "type": "Point", "coordinates": [ 9.19886095299163, 45.4591768595565 ] } },
{ "type": "Feature", "properties": { "Denominazione": "LS ENRICO FERMI", "Grado": "Scuola secondaria - Secondo grado", "Indirizzo": "VIA ALFIERI VITTORIO 12", "MUNICIPIO": 1, "Quartiere": null, "Longitudine": 9.1760659450531605, "Latitudine": 45.478928621672303, "NIL": "SARPI", "icon": "id-card" }, "geometry": { "type": "Point", "coordinates": [ 9.176065945053161, 45.478928621672303 ] } },
{ "type": "Feature", "properties": { "Denominazione": "IISS L.CREMONA", "Grado": "Scuola secondaria - Secondo grado", "Indirizzo": "VLE MARCHE 73", "MUNICIPIO": 9, "Quartiere": null, "Longitudine": 9.1900522150056503, "Latitudine": 45.4964470996321, "NIL": "ISOLA", "icon": "id-card" }, "geometry": { "type": "Point", "coordinates": [ 9.19005221500565, 45.4964470996321 ] } },
{ "type": "Feature", "properties": { "Denominazione": "LS S.AMBROGIO SALESIANO", "Grado": "Scuola secondaria - Secondo grado", "Indirizzo": "VIA COPERNICO NICOLO' 9", "MUNICIPIO": 2, "Quartiere": null, "Longitudine": 9.2011189091340899, "Latitudine": 45.488062674153298, "NIL": "STAZIONE CENTRALE - PONTE SEVESO", "icon": "id-card" }, "geometry": { "type": "Point", "coordinates": [ 9.20111890913409, 45.488062674153298 ] } },
{ "type": "Feature", "properties": { "Denominazione": "LS FA E S  ARGONNE", "Grado": "Scuola secondaria - Secondo grado", "Indirizzo": "VIA GIOIA MELCHIORRE 42", "MUNICIPIO": 2, "Quartiere": null, "Longitudine": 9.1991351823754801, "Latitudine": 45.487633826443698, "NIL": "STAZIONE CENTRALE - PONTE SEVESO", "icon": "id-card" }, "geometry": { "type": "Point", "coordinates": [ 9.19913518237548, 45.487633826443698 ] } },
{ "type": "Feature", "properties": { "Denominazione": "LSS A.VOLTA", "Grado": "Scuola secondaria - Secondo grado", "Indirizzo": "VIA MARCELLO BENEDETTO 7", "MUNICIPIO": 3, "Quartiere": null, "Longitudine": 9.2062440479792507, "Latitudine": 45.479572410965403, "NIL": "BUENOS AIRES - PORTA VENEZIA - PORTA MONFORTE", "icon": "id-card" }, "geometry": { "type": "Point", "coordinates": [ 9.206244047979251, 45.479572410965403 ] } },
{ "type": "Feature", "properties": { "Denominazione": "LS ISTITUTO GONZAGA", "Grado": "Scuola secondaria - Secondo grado", "Indirizzo": "VIA VITRUVIO 41", "MUNICIPIO": 2, "Quartiere": null, "Longitudine": 9.2060447352422408, "Latitudine": 45.4825871136999, "NIL": "STAZIONE CENTRALE - PONTE SEVESO", "icon": "id-card" }, "geometry": { "type": "Point", "coordinates": [ 9.206044735242241, 45.4825871136999 ] } },
{ "type": "Feature", "properties": { "Denominazione": "LSS A.EINSTEIN", "Grado": "Scuola secondaria - Secondo grado", "Indirizzo": "VIA EINSTEIN ALBERTO 3", "MUNICIPIO": 4, "Quartiere": null, "Longitudine": 9.2161614852344496, "Latitudine": 45.450181617438503, "NIL": "UMBRIA - MOLISE - CALVAIRATE", "icon": "id-card" }, "geometry": { "type": "Point", "coordinates": [ 9.21616148523445, 45.450181617438503 ] } },
{ "type": "Feature", "properties": { "Denominazione": "LSS P.BOTTONI", "Grado": "Scuola secondaria - Secondo grado", "Indirizzo": "VIA MAC MAHON 96", "MUNICIPIO": 8, "Quartiere": null, "Longitudine": 9.1571521935139195, "Latitudine": 45.494702029181802, "NIL": "VILLAPIZZONE - CAGNOLA - BOLDINASCO", "icon": "id-card" }, "geometry": { "type": "Point", "coordinates": [ 9.15715219351392, 45.494702029181802 ] } },
{ "type": "Feature", "properties": { "Denominazione": "LS LEONE XIII", "Grado": "Scuola secondaria - Secondo grado", "Indirizzo": "VIA LEONE XIII 12", "MUNICIPIO": 8, "Quartiere": null, "Longitudine": 9.1631927529189205, "Latitudine": 45.474263488587198, "NIL": "PAGANO", "icon": "id-card" }, "geometry": { "type": "Point", "coordinates": [ 9.163192752918921, 45.474263488587198 ] } },
{ "type": "Feature", "properties": { "Denominazione": "IISS B.RUSSELL", "Grado": "Scuola secondaria - Secondo grado", "Indirizzo": "VIA GATTI FRANCESCO 16", "MUNICIPIO": 9, "Quartiere": null, "Longitudine": 9.1906986035559406, "Latitudine": 45.5059592334418, "NIL": "NIGUARDA - CA' GRANDA - PRATO CENTENARO - Q.RE FULVIO TESTI", "icon": "id-card" }, "geometry": { "type": "Point", "coordinates": [ 9.190698603555941, 45.5059592334418 ] } },
{ "type": "Feature", "properties": { "Denominazione": "LS NUOVO ISTITUTO STUDIUM", "Grado": "Scuola secondaria - Secondo grado", "Indirizzo": "VIA APORTI FERRANTE 62", "MUNICIPIO": 2, "Quartiere": null, "Longitudine": 9.2153826661505995, "Latitudine": 45.495202166691698, "NIL": "LORETO - CASORETTO - NOLO", "icon": "id-card" }, "geometry": { "type": "Point", "coordinates": [ 9.2153826661506, 45.495202166691698 ] } },
{ "type": "Feature", "properties": { "Denominazione": "LSS R.DONATELLI-B.PASCAL", "Grado": "Scuola secondaria - Secondo grado", "Indirizzo": "VLE CAMPANIA 6", "MUNICIPIO": 4, "Quartiere": null, "Longitudine": 9.2243664837776898, "Latitudine": 45.462850528567401, "NIL": "CORSICA", "icon": "id-card" }, "geometry": { "type": "Point", "coordinates": [ 9.22436648377769, 45.462850528567401 ] } },
{ "type": "Feature", "properties": { "Denominazione": "LS MARIA IMMACOLATA", "Grado": "Scuola secondaria - Secondo grado", "Indirizzo": "VIA AMADEO GIAN ANTONIO 11", "MUNICIPIO": 3, "Quartiere": null, "Longitudine": 9.2317022302290805, "Latitudine": 45.471077229345099, "NIL": "CITTA' STUDI", "icon": "id-card" }, "geometry": { "type": "Point", "coordinates": [ 9.231702230229081, 45.471077229345099 ] } },
{ "type": "Feature", "properties": { "Denominazione": "LS FONDAZIONE SACRO CUORE", "Grado": "Scuola secondaria - Secondo grado", "Indirizzo": "VIA ROMBON 78", "MUNICIPIO": 3, "Quartiere": null, "Longitudine": 9.2521545563502396, "Latitudine": 45.486179190926002, "NIL": "LAMBRATE - ORTICA", "icon": "id-card" }, "geometry": { "type": "Point", "coordinates": [ 9.25215455635024, 45.486179190926002 ] } },
{ "type": "Feature", "properties": { "Denominazione": "LS SCUOLA EUROPA", "Grado": "Scuola secondaria - Secondo grado", "Indirizzo": "VLE MAJNO LUIGI 39", "MUNICIPIO": 1, "Quartiere": null, "Longitudine": 9.2050811131039794, "Latitudine": 45.4723972805728, "NIL": "GUASTALLA", "icon": "id-card" }, "geometry": { "type": "Point", "coordinates": [ 9.205081113103979, 45.4723972805728 ] } },
{ "type": "Feature", "properties": { "Denominazione": "LSS E.VITTORINI", "Grado": "Scuola secondaria - Secondo grado", "Indirizzo": "VIA DONATI MARIO 5", "MUNICIPIO": 6, "Quartiere": null, "Longitudine": 9.1453283851251808, "Latitudine": 45.454314346657, "NIL": "BANDE NERE", "icon": "id-card" }, "geometry": { "type": "Point", "coordinates": [ 9.145328385125181, 45.454314346657 ] } },
{ "type": "Feature", "properties": { "Denominazione": "LSS G MARCONI", "Grado": "Scuola secondaria - Secondo grado", "Indirizzo": "VIA DEI GIACINTI 31", "MUNICIPIO": 6, "Quartiere": null, "Longitudine": 9.1284171975247297, "Latitudine": 45.449370711287003, "NIL": "LORENTEGGIO", "icon": "id-card" }, "geometry": { "type": "Point", "coordinates": [ 9.12841719752473, 45.449370711287003 ] } },
{ "type": "Feature", "properties": { "Denominazione": "LSS VITTORIO VENETO", "Grado": "Scuola secondaria - Secondo grado", "Indirizzo": "VIA DE VINCENTI ANGELO 7", "MUNICIPIO": 7, "Quartiere": null, "Longitudine": 9.1415827684100002, "Latitudine": 45.4774397703086, "NIL": "SAN SIRO", "icon": "id-card" }, "geometry": { "type": "Point", "coordinates": [ 9.14158276841, 45.4774397703086 ] } },
{ "type": "Feature", "properties": { "Denominazione": "LS SAN CELSO", "Grado": "Scuola secondaria - Secondo grado", "Indirizzo": "VIA PARAVIA PIER ALESSANDRO 5", "MUNICIPIO": 7, "Quartiere": null, "Longitudine": 9.1278449635915404, "Latitudine": 45.469556782114203, "NIL": "STADIO - IPPODROMI", "icon": "id-card" }, "geometry": { "type": "Point", "coordinates": [ 9.12784496359154, 45.469556782114203 ] } },
{ "type": "Feature", "properties": { "Denominazione": "LCS G.PARINI", "Grado": "Scuola secondaria - Secondo grado", "Indirizzo": "VIA GOITO 4", "MUNICIPIO": 1, "Quartiere": null, "Longitudine": 9.1888035398243009, "Latitudine": 45.474274599378603, "NIL": "BRERA", "icon": "id-card" }, "geometry": { "type": "Point", "coordinates": [ 9.188803539824301, 45.474274599378603 ] } },
{ "type": "Feature", "properties": { "Denominazione": "LCS G.BERCHET", "Grado": "Scuola secondaria - Secondo grado", "Indirizzo": "VIA DELLA COMMENDA 26", "MUNICIPIO": 1, "Quartiere": null, "Longitudine": 9.1992210563807095, "Latitudine": 45.4556644798881, "NIL": "GUASTALLA", "icon": "id-card" }, "geometry": { "type": "Point", "coordinates": [ 9.19922105638071, 45.4556644798881 ] } },
{ "type": "Feature", "properties": { "Denominazione": "LCS SETTI CARRARO DALLA CHIESA", "Grado": "Scuola secondaria - Secondo grado", "Indirizzo": "VIA PASSIONE 12", "MUNICIPIO": 1, "Quartiere": null, "Longitudine": 9.20213676384137, "Latitudine": 45.464996988461003, "NIL": "GUASTALLA", "icon": "id-card" }, "geometry": { "type": "Point", "coordinates": [ 9.20213676384137, 45.464996988461003 ] } },
{ "type": "Feature", "properties": { "Denominazione": "LCS A.MANZONI", "Grado": "Scuola secondaria - Secondo grado", "Indirizzo": "VIA ORAZIO 3", "MUNICIPIO": 1, "Quartiere": null, "Longitudine": 9.1777352640656105, "Latitudine": 45.459821847117603, "NIL": "DUOMO", "icon": "id-card" }, "geometry": { "type": "Point", "coordinates": [ 9.17773526406561, 45.459821847117603 ] } },
{ "type": "Feature", "properties": { "Denominazione": "LC ISTITUTO VITTORIA COLONNA", "Grado": "Scuola secondaria - Secondo grado", "Indirizzo": "VIA CONSERVATORIO 4", "MUNICIPIO": 1, "Quartiere": null, "Longitudine": 9.2032715037700399, "Latitudine": 45.4642846174497, "NIL": "GUASTALLA", "icon": "id-card" }, "geometry": { "type": "Point", "coordinates": [ 9.20327150377004, 45.4642846174497 ] } },
{ "type": "Feature", "properties": { "Denominazione": "LC ORSOLINE DI S.CARLO", "Grado": "Scuola secondaria - Secondo grado", "Indirizzo": "VIA LANZONE 53", "MUNICIPIO": 1, "Quartiere": null, "Longitudine": 9.1745765138994706, "Latitudine": 45.461511296567402, "NIL": "DUOMO", "icon": "id-card" }, "geometry": { "type": "Point", "coordinates": [ 9.174576513899471, 45.461511296567402 ] } },
{ "type": "Feature", "properties": { "Denominazione": "LCS C.BECCARIA", "Grado": "Scuola secondaria - Secondo grado", "Indirizzo": "VIA LINNEO CARLO 5", "MUNICIPIO": 8, "Quartiere": null, "Longitudine": 9.1641566340801894, "Latitudine": 45.478328673661601, "NIL": "PAGANO", "icon": "id-card" }, "geometry": { "type": "Point", "coordinates": [ 9.164156634080189, 45.478328673661601 ] } },
{ "type": "Feature", "properties": { "Denominazione": "LC TITO LIVIO", "Grado": "Scuola secondaria - Secondo grado", "Indirizzo": "VIA CIRCO 4", "MUNICIPIO": 1, "Quartiere": null, "Longitudine": 9.1807410967051997, "Latitudine": 45.461636562210401, "NIL": "DUOMO", "icon": "id-card" }, "geometry": { "type": "Point", "coordinates": [ 9.1807410967052, 45.461636562210401 ] } },
{ "type": "Feature", "properties": { "Denominazione": "LCS G.CARDUCCI", "Grado": "Scuola secondaria - Secondo grado", "Indirizzo": "VIA BEROLDO 9", "MUNICIPIO": 2, "Quartiere": null, "Longitudine": 9.2143201376632007, "Latitudine": 45.487934430769499, "NIL": "LORETO - CASORETTO - NOLO", "icon": "id-card" }, "geometry": { "type": "Point", "coordinates": [ 9.214320137663201, 45.487934430769499 ] } },
{ "type": "Feature", "properties": { "Denominazione": "LC F.A.E.S MONFORTE", "Grado": "Scuola secondaria - Secondo grado", "Indirizzo": "VIA PONZIO GIUSEPPE 75", "MUNICIPIO": 3, "Quartiere": null, "Longitudine": 9.2297252804933496, "Latitudine": 45.481515675402498, "NIL": "CITTA' STUDI", "icon": "id-card" }, "geometry": { "type": "Point", "coordinates": [ 9.22972528049335, 45.481515675402498 ] } },
{ "type": "Feature", "properties": { "Denominazione": "LC G.B.MONTINI", "Grado": "Scuola secondaria - Secondo grado", "Indirizzo": "CSO DI PORTA ROMANA 105", "MUNICIPIO": 1, "Quartiere": null, "Longitudine": 9.1989240724739307, "Latitudine": 45.4542760465093, "NIL": "GUASTALLA", "icon": "id-card" }, "geometry": { "type": "Point", "coordinates": [ 9.198924072473931, 45.4542760465093 ] } },
{ "type": "Feature", "properties": { "Denominazione": "LL DARDI", "Grado": "Scuola secondaria - Secondo grado", "Indirizzo": "VIA SANZIO RAFFAELLO 4", "MUNICIPIO": 7, "Quartiere": null, "Longitudine": 9.1537162772770095, "Latitudine": 45.4694626858916, "NIL": "DE ANGELI - MONTE ROSA", "icon": "id-card" }, "geometry": { "type": "Point", "coordinates": [ 9.15371627727701, 45.4694626858916 ] } },
{ "type": "Feature", "properties": { "Denominazione": "LL INTERNAZIONALE", "Grado": "Scuola secondaria - Secondo grado", "Indirizzo": "VIA VESPRI SICILIANI 88", "MUNICIPIO": 6, "Quartiere": null, "Longitudine": 9.1433462385311, "Latitudine": 45.450939880005301, "NIL": "GIAMBELLINO", "icon": "id-card" }, "geometry": { "type": "Point", "coordinates": [ 9.1433462385311, 45.450939880005301 ] } },
{ "type": "Feature", "properties": { "Denominazione": "LL SAN VINCENZO REGINA MUNDI", "Grado": "Scuola secondaria - Secondo grado", "Indirizzo": "VIA BONCOMPAGNI CARLO 18", "MUNICIPIO": 4, "Quartiere": null, "Longitudine": 9.22687784645065, "Latitudine": 45.440082477309403, "NIL": "LODI - CORVETTO", "icon": "id-card" }, "geometry": { "type": "Point", "coordinates": [ 9.22687784645065, 45.440082477309403 ] } },
{ "type": "Feature", "properties": { "Denominazione": "IA BEATO ANGELICO", "Grado": "Scuola secondaria - Secondo grado", "Indirizzo": "VLE SAN GIMIGNANO 19", "MUNICIPIO": 6, "Quartiere": null, "Longitudine": 9.1360748741551792, "Latitudine": 45.4589772722627, "NIL": "BANDE NERE", "icon": "id-card" }, "geometry": { "type": "Point", "coordinates": [ 9.136074874155179, 45.4589772722627 ] } },
{ "type": "Feature", "properties": { "Denominazione": "LAS U.BOCCIONI", "Grado": "Scuola secondaria - Secondo grado", "Indirizzo": "PLE ARDUINO 4", "MUNICIPIO": 8, "Quartiere": null, "Longitudine": 9.1507118523868805, "Latitudine": 45.478037889924998, "NIL": "DE ANGELI - MONTE ROSA", "icon": "id-card" }, "geometry": { "type": "Point", "coordinates": [ 9.15071185238688, 45.478037889924998 ] } },
{ "type": "Feature", "properties": { "Denominazione": "LAS  CARAVAGGIO", "Grado": "Scuola secondaria - Secondo grado", "Indirizzo": "VIA PRINETTI LUIGI 47", "MUNICIPIO": 2, "Quartiere": null, "Longitudine": 9.2330551505722607, "Latitudine": 45.4990016733164, "NIL": "PADOVA - TURRO - CRESCENZAGO", "icon": "id-card" }, "geometry": { "type": "Point", "coordinates": [ 9.233055150572261, 45.4990016733164 ] } },
{ "type": "Feature", "properties": { "Denominazione": "I° LAS", "Grado": "Scuola secondaria - Secondo grado", "Indirizzo": "VIA HAJECH CAMILLO 27", "MUNICIPIO": 4, "Quartiere": null, "Longitudine": 9.2183053207211305, "Latitudine": 45.464644638098299, "NIL": "XXII MARZO", "icon": "id-card" }, "geometry": { "type": "Point", "coordinates": [ 9.218305320721131, 45.464644638098299 ] } },
{ "type": "Feature", "properties": { "Denominazione": "ITC SANTA GEMMA", "Grado": "Scuola secondaria - Secondo grado", "Indirizzo": "VIA BALDINUCCI FILIPPO 88", "MUNICIPIO": 9, "Quartiere": null, "Longitudine": 9.16737731132012, "Latitudine": 45.502972745228803, "NIL": "BOVISA", "icon": "id-card" }, "geometry": { "type": "Point", "coordinates": [ 9.16737731132012, 45.502972745228803 ] } },
{ "type": "Feature", "properties": { "Denominazione": "ITT P.P.PASOLINI", "Grado": "Scuola secondaria - Secondo grado", "Indirizzo": "VIA BISTOLFI LEONARDO 15", "MUNICIPIO": 3, "Quartiere": null, "Longitudine": 9.2446890062416003, "Latitudine": 45.473648823214603, "NIL": "LAMBRATE - ORTICA", "icon": "id-card" }, "geometry": { "type": "Point", "coordinates": [ 9.2446890062416, 45.473648823214603 ] } },
{ "type": "Feature", "properties": { "Denominazione": "IT  SCUOLA COMUNITA' EBRAICA", "Grado": "Scuola secondaria - Secondo grado", "Indirizzo": "VIA MAYER SALLY 4", "MUNICIPIO": 6, "Quartiere": null, "Longitudine": 9.1376685441207304, "Latitudine": 45.455795257296202, "NIL": "BANDE NERE", "icon": "id-card" }, "geometry": { "type": "Point", "coordinates": [ 9.13766854412073, 45.455795257296202 ] } },
{ "type": "Feature", "properties": { "Denominazione": "LA  GIOVANNI XXIII", "Grado": "Scuola secondaria - Secondo grado", "Indirizzo": "CSO DI PORTA VIGENTINA 14", "MUNICIPIO": 1, "Quartiere": null, "Longitudine": 9.1955691675159894, "Latitudine": 45.454869102639201, "NIL": "PORTA VIGENTINA - PORTA LODOVICA", "icon": "id-card" }, "geometry": { "type": "Point", "coordinates": [ 9.195569167515989, 45.454869102639201 ] } },
{ "type": "Feature", "properties": { "Denominazione": "LS  MADRE A.COCCHETTI", "Grado": "Scuola secondaria - Secondo grado", "Indirizzo": "VLE GIOVANNI DA CERMENATE 4", "MUNICIPIO": 5, "Quartiere": null, "Longitudine": 9.1766894048607508, "Latitudine": 45.437295825160597, "NIL": "STADERA - CHIESA ROSSA - Q.RE TORRETTA - CONCA FALLATA", "icon": "id-card" }, "geometry": { "type": "Point", "coordinates": [ 9.176689404860751, 45.437295825160597 ] } },
{ "type": "Feature", "properties": { "Denominazione": "LS ALEXIS CARREL", "Grado": "Scuola secondaria - Secondo grado", "Indirizzo": "VIA INGANNI ANGELO 12", "MUNICIPIO": 6, "Quartiere": null, "Longitudine": 9.12776987461916, "Latitudine": 45.4476980956169, "NIL": "LORENTEGGIO", "icon": "id-card" }, "geometry": { "type": "Point", "coordinates": [ 9.12776987461916, 45.4476980956169 ] } },
{ "type": "Feature", "properties": { "Denominazione": "LS RUDOLF STEINER", "Grado": "Scuola secondaria - Secondo grado", "Indirizzo": "VIA CLERICETTI CELESTE 45", "MUNICIPIO": 3, "Quartiere": null, "Longitudine": 9.2352518267148298, "Latitudine": 45.479609013465897, "NIL": "CITTA' STUDI", "icon": "id-card" }, "geometry": { "type": "Point", "coordinates": [ 9.23525182671483, 45.479609013465897 ] } },
{ "type": "Feature", "properties": { "Denominazione": "IPSS MARIA AUSILIATRICE", "Grado": "Scuola secondaria - Secondo grado", "Indirizzo": "VIA BONVESIN DE LA RIVA 12", "MUNICIPIO": 4, "Quartiere": null, "Longitudine": 9.2121639704888292, "Latitudine": 45.463677150737503, "NIL": "XXII MARZO", "icon": "id-card" }, "geometry": { "type": "Point", "coordinates": [ 9.212163970488829, 45.463677150737503 ] } },
{ "type": "Feature", "properties": { "Denominazione": "LS CARDUCCI", "Grado": "Scuola secondaria - Secondo grado", "Indirizzo": "VIA APORTI FERRANTE 12", "MUNICIPIO": 2, "Quartiere": null, "Longitudine": 9.2088282201620899, "Latitudine": 45.488209710748997, "NIL": "STAZIONE CENTRALE - PONTE SEVESO", "icon": "id-card" }, "geometry": { "type": "Point", "coordinates": [ 9.20882822016209, 45.488209710748997 ] } },
{ "type": "Feature", "properties": { "Denominazione": "LS SCUOLA GERMANICA", "Grado": "Scuola secondaria - Secondo grado", "Indirizzo": "VIA LEGNANO 24", "MUNICIPIO": 1, "Quartiere": null, "Longitudine": 9.1817214452113394, "Latitudine": 45.476173980630001, "NIL": "BRERA", "icon": "id-card" }, "geometry": { "type": "Point", "coordinates": [ 9.181721445211339, 45.476173980630001 ] } },
{ "type": "Feature", "properties": { "Denominazione": "LYCEE STENDHAL", "Grado": "Scuola secondaria - Secondo grado", "Indirizzo": "VIA LAVENO 12", "MUNICIPIO": 7, "Quartiere": null, "Longitudine": 9.1388025054801503, "Latitudine": 45.4772105884742, "NIL": "STADIO - IPPODROMI", "icon": "id-card" }, "geometry": { "type": "Point", "coordinates": [ 9.13880250548015, 45.4772105884742 ] } },
{ "type": "Feature", "properties": { "Denominazione": "INTERNATIONAL SCHOOL OF MILAN", "Grado": "Scuola secondaria - Secondo grado", "Indirizzo": "VIA BELLINI VINCENZO 1", "MUNICIPIO": 1, "Quartiere": null, "Longitudine": 9.2033158568878299, "Latitudine": 45.465522944223103, "NIL": "GUASTALLA", "icon": "id-card" }, "geometry": { "type": "Point", "coordinates": [ 9.20331585688783, 45.465522944223103 ] } },
{ "type": "Feature", "properties": { "Denominazione": "CONSERVATORIO GIUSEPPE VERDI", "Grado": "Scuola secondaria - Secondo grado", "Indirizzo": "VIA CONSERVATORIO 12", "MUNICIPIO": 1, "Quartiere": null, "Longitudine": 9.20314541811784, "Latitudine": 45.464705279140603, "NIL": "GUASTALLA", "icon": "id-card" }, "geometry": { "type": "Point", "coordinates": [ 9.20314541811784, 45.464705279140603 ] } },
{ "type": "Feature", "properties": { "Denominazione": "ITIS INFORMATICO S. FREUD", "Grado": "Scuola secondaria - Secondo grado", "Indirizzo": "VIA MODENA GUSTAVO 9", "MUNICIPIO": 3, "Quartiere": null, "Longitudine": 9.2135717254905103, "Latitudine": 45.470873716750397, "NIL": "BUENOS AIRES - PORTA VENEZIA - PORTA MONFORTE", "icon": "id-card" }, "geometry": { "type": "Point", "coordinates": [ 9.21357172549051, 45.470873716750397 ] } },
{ "type": "Feature", "properties": { "Denominazione": "UNIVERSITA' DEGLI STUDI DI MILANO", "Grado": "Università", "Indirizzo": "PZA OSPEDALE MAGGIORE 3", "MUNICIPIO": 9, "Quartiere": null, "Longitudine": 9.1886808445053703, "Latitudine": 45.509229652686599, "NIL": "NIGUARDA - CA' GRANDA - PRATO CENTENARO - Q.RE FULVIO TESTI", "icon": "id-card" }, "geometry": { "type": "Point", "coordinates": [ 9.18868084450537, 45.509229652686599 ] } },
{ "type": "Feature", "properties": { "Denominazione": "UNIVERSITA' DEGLI STUDI DI MILANO", "Grado": "Università", "Indirizzo": "PZA FERRARI ANDREA CARDINALE 1", "MUNICIPIO": 1, "Quartiere": null, "Longitudine": 9.1929732463835805, "Latitudine": 45.4553179955712, "NIL": "PORTA VIGENTINA - PORTA LODOVICA", "icon": "id-card" }, "geometry": { "type": "Point", "coordinates": [ 9.19297324638358, 45.4553179955712 ] } },
{ "type": "Feature", "properties": { "Denominazione": "UNIVERSITA' DEGLI STUDI DI MILANO", "Grado": "Università", "Indirizzo": "VLE ABRUZZI 42", "MUNICIPIO": 3, "Quartiere": null, "Longitudine": 9.2173265118830106, "Latitudine": 45.479643002232102, "NIL": "BUENOS AIRES - PORTA VENEZIA - PORTA MONFORTE", "icon": "id-card" }, "geometry": { "type": "Point", "coordinates": [ 9.217326511883011, 45.479643002232102 ] } },
{ "type": "Feature", "properties": { "Denominazione": "UNIVERSITA' DEGLI STUDI DI MILANO", "Grado": "Università", "Indirizzo": "PZA SANT' ALESSANDRO 1", "MUNICIPIO": 1, "Quartiere": null, "Longitudine": 9.1864770581521107, "Latitudine": 45.461219066042901, "NIL": "DUOMO", "icon": "id-card" }, "geometry": { "type": "Point", "coordinates": [ 9.186477058152111, 45.461219066042901 ] } },
{ "type": "Feature", "properties": { "Denominazione": "UNIVERSITA' DEGLI STUDI DI MILANO", "Grado": "Università", "Indirizzo": "PZA SANT' ALESSANDRO 1", "MUNICIPIO": 1, "Quartiere": null, "Longitudine": 9.1865065099896093, "Latitudine": 45.461217431207103, "NIL": "DUOMO", "icon": "id-card" }, "geometry": { "type": "Point", "coordinates": [ 9.186506509989609, 45.461217431207103 ] } },
{ "type": "Feature", "properties": { "Denominazione": "UNIVERSITA' DEGLI STUDI DI MILANO", "Grado": "Università", "Indirizzo": "VIA DI RUDINI' ANTONIO 8", "MUNICIPIO": 6, "Quartiere": null, "Longitudine": 9.1580016623868907, "Latitudine": 45.433467258074899, "NIL": "BARONA", "icon": "id-card" }, "geometry": { "type": "Point", "coordinates": [ 9.158001662386891, 45.433467258074899 ] } },
{ "type": "Feature", "properties": { "Denominazione": "UNIVERSITA' DEGLI STUDI DI MILANO", "Grado": "Università", "Indirizzo": "VIA DI RUDINI' ANTONIO 8", "MUNICIPIO": 6, "Quartiere": null, "Longitudine": 9.1580160662390302, "Latitudine": 45.433466458891701, "NIL": "BARONA", "icon": "id-card" }, "geometry": { "type": "Point", "coordinates": [ 9.15801606623903, 45.433466458891701 ] } },
{ "type": "Feature", "properties": { "Denominazione": "UNIVERSITA' DEGLI STUDI DI MILANO", "Grado": "Università", "Indirizzo": "VIA CELORIA GIOVANNI 2", "MUNICIPIO": 3, "Quartiere": null, "Longitudine": 9.2272366916893898, "Latitudine": 45.476747404918299, "NIL": "CITTA' STUDI", "icon": "id-card" }, "geometry": { "type": "Point", "coordinates": [ 9.22723669168939, 45.476747404918299 ] } },
{ "type": "Feature", "properties": { "Denominazione": "UNIVERSITA' DEGLI STUDI DI MILANO", "Grado": "Università", "Indirizzo": "VIA BALZARETTI GIUSEPPE 9", "MUNICIPIO": 3, "Quartiere": null, "Longitudine": 9.2207788994113908, "Latitudine": 45.476997148340402, "NIL": "BUENOS AIRES - PORTA VENEZIA - PORTA MONFORTE", "icon": "id-card" }, "geometry": { "type": "Point", "coordinates": [ 9.220778899411391, 45.476997148340402 ] } },
{ "type": "Feature", "properties": { "Denominazione": "UNIVERSITA' DEGLI STUDI DI MILANO", "Grado": "Università", "Indirizzo": "VIA BALZARETTI GIUSEPPE 9", "MUNICIPIO": 3, "Quartiere": null, "Longitudine": 9.2207675688152992, "Latitudine": 45.476997778071599, "NIL": "BUENOS AIRES - PORTA VENEZIA - PORTA MONFORTE", "icon": "id-card" }, "geometry": { "type": "Point", "coordinates": [ 9.220767568815299, 45.476997778071599 ] } },
{ "type": "Feature", "properties": { "Denominazione": "UNIVERSITA' DEGLI STUDI DI MILANO", "Grado": "Università", "Indirizzo": "VIA BRERA 28", "MUNICIPIO": 1, "Quartiere": null, "Longitudine": 9.1876687573900906, "Latitudine": 45.472245129128297, "NIL": "BRERA", "icon": "id-card" }, "geometry": { "type": "Point", "coordinates": [ 9.187668757390091, 45.472245129128297 ] } },
{ "type": "Feature", "properties": { "Denominazione": "UNIVERSITA' DEGLI STUDI DI MILANO", "Grado": "Università", "Indirizzo": "VIA PASCAL CARLO 38", "MUNICIPIO": 3, "Quartiere": null, "Longitudine": 9.2351238997477108, "Latitudine": 45.478428171501101, "NIL": "CITTA' STUDI", "icon": "id-card" }, "geometry": { "type": "Point", "coordinates": [ 9.235123899747711, 45.478428171501101 ] } },
{ "type": "Feature", "properties": { "Denominazione": "UNIVERSITA' DEGLI STUDI DI MILANO", "Grado": "Università", "Indirizzo": "VIA CELORIA GIOVANNI 2", "MUNICIPIO": 3, "Quartiere": null, "Longitudine": 9.2272480750003893, "Latitudine": 45.4767467720269, "NIL": "CITTA' STUDI", "icon": "id-card" }, "geometry": { "type": "Point", "coordinates": [ 9.227248075000389, 45.4767467720269 ] } },
{ "type": "Feature", "properties": { "Denominazione": "UNIVERSITA' DEGLI STUDI DI MILANO", "Grado": "Università", "Indirizzo": "VIA CELORIA GIOVANNI 20", "MUNICIPIO": 3, "Quartiere": null, "Longitudine": 9.2323306482639609, "Latitudine": 45.476777202086303, "NIL": "CITTA' STUDI", "icon": "id-card" }, "geometry": { "type": "Point", "coordinates": [ 9.232330648263961, 45.476777202086303 ] } },
{ "type": "Feature", "properties": { "Denominazione": "UNIVERSITA' DEGLI STUDI DI MILANO", "Grado": "Università", "Indirizzo": "VIA CAPECELATRO ALFONSO 66", "MUNICIPIO": 7, "Quartiere": null, "Longitudine": 9.1272412880570695, "Latitudine": 45.473355890076597, "NIL": "STADIO - IPPODROMI", "icon": "id-card" }, "geometry": { "type": "Point", "coordinates": [ 9.127241288057069, 45.473355890076597 ] } },
{ "type": "Feature", "properties": { "Denominazione": "UNIVERSITA' DEGLI STUDI DI MILANO", "Grado": "Università", "Indirizzo": "VIA CELORIA GIOVANNI 22", "MUNICIPIO": 3, "Quartiere": null, "Longitudine": 9.2326103891661901, "Latitudine": 45.476772962913699, "NIL": "CITTA' STUDI", "icon": "id-card" }, "geometry": { "type": "Point", "coordinates": [ 9.23261038916619, 45.476772962913699 ] } },
{ "type": "Feature", "properties": { "Denominazione": "UNIVERSITA' DEGLI STUDI DI MILANO", "Grado": "Università", "Indirizzo": "VIA CELORIA GIOVANNI 16", "MUNICIPIO": 3, "Quartiere": null, "Longitudine": 9.2305830844107408, "Latitudine": 45.476771333741901, "NIL": "CITTA' STUDI", "icon": "id-card" }, "geometry": { "type": "Point", "coordinates": [ 9.230583084410741, 45.476771333741901 ] } },
{ "type": "Feature", "properties": { "Denominazione": "UNIVERSITA' DEGLI STUDI DI MILANO", "Grado": "Università", "Indirizzo": "VIA CELORIA GIOVANNI 10", "MUNICIPIO": 3, "Quartiere": null, "Longitudine": 9.2287938183284997, "Latitudine": 45.476754902312898, "NIL": "CITTA' STUDI", "icon": "id-card" }, "geometry": { "type": "Point", "coordinates": [ 9.2287938183285, 45.476754902312898 ] } },
{ "type": "Feature", "properties": { "Denominazione": "UNIVERSITA' DEGLI STUDI DI MILANO", "Grado": "Università", "Indirizzo": "VIA CELORIA GIOVANNI 10", "MUNICIPIO": 3, "Quartiere": null, "Longitudine": 9.2288014156993494, "Latitudine": 45.476754479858002, "NIL": "CITTA' STUDI", "icon": "id-card" }, "geometry": { "type": "Point", "coordinates": [ 9.228801415699349, 45.476754479858002 ] } },
{ "type": "Feature", "properties": { "Denominazione": "UNIVERSITA' DEGLI STUDI DI MILANO", "Grado": "Università", "Indirizzo": "VIA SFORZA FRANCESCO 35", "MUNICIPIO": 1, "Quartiere": null, "Longitudine": 9.1949174836285401, "Latitudine": 45.458960837279598, "NIL": "GUASTALLA", "icon": "id-card" }, "geometry": { "type": "Point", "coordinates": [ 9.19491748362854, 45.458960837279598 ] } },
{ "type": "Feature", "properties": { "Denominazione": "UNIVERSITA' DEGLI STUDI DI MILANO", "Grado": "Università", "Indirizzo": "VIA CELORIA GIOVANNI 10", "MUNICIPIO": 3, "Quartiere": null, "Longitudine": 9.2287976170087607, "Latitudine": 45.476754691085702, "NIL": "CITTA' STUDI", "icon": "id-card" }, "geometry": { "type": "Point", "coordinates": [ 9.228797617008761, 45.476754691085702 ] } },
{ "type": "Feature", "properties": { "Denominazione": "UNIVERSITA' DEGLI STUDI DI MILANO", "Grado": "Università", "Indirizzo": "VIA CELORIA GIOVANNI 26", "MUNICIPIO": 3, "Quartiere": null, "Longitudine": 9.2334887650972703, "Latitudine": 45.476773931326399, "NIL": "CITTA' STUDI", "icon": "id-card" }, "geometry": { "type": "Point", "coordinates": [ 9.23348876509727, 45.476773931326399 ] } },
{ "type": "Feature", "properties": { "Denominazione": "UNIVERSITA' DEGLI STUDI DI MILANO", "Grado": "Università", "Indirizzo": "VIA CELORIA GIOVANNI 26", "MUNICIPIO": 3, "Quartiere": null, "Longitudine": 9.2334773305551199, "Latitudine": 45.476774567282703, "NIL": "CITTA' STUDI", "icon": "id-card" }, "geometry": { "type": "Point", "coordinates": [ 9.23347733055512, 45.476774567282703 ] } },
{ "type": "Feature", "properties": { "Denominazione": "UNIVERSITA' DEGLI STUDI DI MILANO", "Grado": "Università", "Indirizzo": "VIA COMELICO 39", "MUNICIPIO": 4, "Quartiere": null, "Longitudine": 9.2146342674863693, "Latitudine": 45.454305181466601, "NIL": "XXII MARZO", "icon": "id-card" }, "geometry": { "type": "Point", "coordinates": [ 9.214634267486369, 45.454305181466601 ] } },
{ "type": "Feature", "properties": { "Denominazione": "UNIVERSITA' DEGLI STUDI DI MILANO", "Grado": "Università", "Indirizzo": "VIA CONSERVATORIO 7", "MUNICIPIO": 1, "Quartiere": null, "Longitudine": 9.2026930742432196, "Latitudine": 45.465769606115501, "NIL": "GUASTALLA", "icon": "id-card" }, "geometry": { "type": "Point", "coordinates": [ 9.20269307424322, 45.465769606115501 ] } },
{ "type": "Feature", "properties": { "Denominazione": "UNIVERSITA' CATTOLICA DEL SACRO CUORE", "Grado": "Università", "Indirizzo": "PZA BUONARROTI MICHELANGELO 30", "MUNICIPIO": 8, "Quartiere": null, "Longitudine": 9.1558862569094099, "Latitudine": 45.470315531740397, "NIL": "PAGANO", "icon": "id-card" }, "geometry": { "type": "Point", "coordinates": [ 9.15588625690941, 45.470315531740397 ] } },
{ "type": "Feature", "properties": { "Denominazione": "UNIVERSITA' DEGLI STUDI DI MILANO", "Grado": "Università", "Indirizzo": "VIA DELLA COMMENDA 12", "MUNICIPIO": 1, "Quartiere": null, "Longitudine": 9.1986427113911304, "Latitudine": 45.458759554795698, "NIL": "GUASTALLA", "icon": "id-card" }, "geometry": { "type": "Point", "coordinates": [ 9.19864271139113, 45.458759554795698 ] } },
{ "type": "Feature", "properties": { "Denominazione": "UNIVERSITA' DEGLI STUDI DI MILANO", "Grado": "Università", "Indirizzo": "VIA DELLA COMMENDA 9", "MUNICIPIO": 1, "Quartiere": null, "Longitudine": 9.1989911747768804, "Latitudine": 45.458554206509298, "NIL": "GUASTALLA", "icon": "id-card" }, "geometry": { "type": "Point", "coordinates": [ 9.19899117477688, 45.458554206509298 ] } },
{ "type": "Feature", "properties": { "Denominazione": "UNIVERSITA' DEGLI STUDI DI MILANO", "Grado": "Università", "Indirizzo": "VIA DELLA COMMENDA 15", "MUNICIPIO": 1, "Quartiere": null, "Longitudine": 9.1990762860137707, "Latitudine": 45.4580188902071, "NIL": "GUASTALLA", "icon": "id-card" }, "geometry": { "type": "Point", "coordinates": [ 9.199076286013771, 45.4580188902071 ] } },
{ "type": "Feature", "properties": { "Denominazione": "UNIVERSITA' DEGLI STUDI DI MILANO", "Grado": "Università", "Indirizzo": "VIA DELLA COMMENDA 19", "MUNICIPIO": 1, "Quartiere": null, "Longitudine": 9.1991695183885707, "Latitudine": 45.457440677290997, "NIL": "GUASTALLA", "icon": "id-card" }, "geometry": { "type": "Point", "coordinates": [ 9.199169518388571, 45.457440677290997 ] } },
{ "type": "Feature", "properties": { "Denominazione": "UNIVERSITA' DEGLI STUDI DI MILANO", "Grado": "Università", "Indirizzo": "VIA GRASSI GIOVANNI BATTISTA 74", "MUNICIPIO": 8, "Quartiere": null, "Longitudine": 9.1201763327569907, "Latitudine": 45.5175261985788, "NIL": "ROSERIO", "icon": "id-card" }, "geometry": { "type": "Point", "coordinates": [ 9.120176332756991, 45.5175261985788 ] } },
{ "type": "Feature", "properties": { "Denominazione": "UNIVERSITA' DEGLI STUDI DI MILANO", "Grado": "Università", "Indirizzo": "VIA COLOMBO GIUSEPPE 71", "MUNICIPIO": 3, "Quartiere": null, "Longitudine": 9.2264137731136699, "Latitudine": 45.473918067086402, "NIL": "CITTA' STUDI", "icon": "id-card" }, "geometry": { "type": "Point", "coordinates": [ 9.22641377311367, 45.473918067086402 ] } },
{ "type": "Feature", "properties": { "Denominazione": "UNIVERSITA' DEGLI STUDI DI MILANO", "Grado": "Università", "Indirizzo": "VIA GRASSELLI ANNIBALE 7", "MUNICIPIO": 4, "Quartiere": null, "Longitudine": 9.2276309941987495, "Latitudine": 45.461219822608697, "NIL": "CORSICA", "icon": "id-card" }, "geometry": { "type": "Point", "coordinates": [ 9.22763099419875, 45.461219822608697 ] } },
{ "type": "Feature", "properties": { "Denominazione": "UNIVERSITA' DEGLI STUDI DI MILANO", "Grado": "Università", "Indirizzo": "VIA CELORIA GIOVANNI 2", "MUNICIPIO": 3, "Quartiere": null, "Longitudine": 9.2272253084712208, "Latitudine": 45.476748037804199, "NIL": "CITTA' STUDI", "icon": "id-card" }, "geometry": { "type": "Point", "coordinates": [ 9.227225308471221, 45.476748037804199 ] } },
{ "type": "Feature", "properties": { "Denominazione": "UNIVERSITA' DEGLI STUDI DI MILANO", "Grado": "Università", "Indirizzo": "VIA CELORIA GIOVANNI 2", "MUNICIPIO": 3, "Quartiere": null, "Longitudine": 9.2272291028669606, "Latitudine": 45.476747826842903, "NIL": "CITTA' STUDI", "icon": "id-card" }, "geometry": { "type": "Point", "coordinates": [ 9.227229102866961, 45.476747826842903 ] } },
{ "type": "Feature", "properties": { "Denominazione": "UNIVERSITA' DEGLI STUDI DI MILANO", "Grado": "Università", "Indirizzo": "VIA CELORIA GIOVANNI 2", "MUNICIPIO": 3, "Quartiere": null, "Longitudine": 9.2272139253458594, "Latitudine": 45.476748670684501, "NIL": "CITTA' STUDI", "icon": "id-card" }, "geometry": { "type": "Point", "coordinates": [ 9.227213925345859, 45.476748670684501 ] } },
{ "type": "Feature", "properties": { "Denominazione": "UNIVERSITA' DEGLI STUDI DI MILANO", "Grado": "Università", "Indirizzo": "VIA CELORIA GIOVANNI 2", "MUNICIPIO": 3, "Quartiere": null, "Longitudine": 9.2271911593736409, "Latitudine": 45.476749936428398, "NIL": "CITTA' STUDI", "icon": "id-card" }, "geometry": { "type": "Point", "coordinates": [ 9.227191159373641, 45.476749936428398 ] } },
{ "type": "Feature", "properties": { "Denominazione": "UNIVERSITA' DEGLI STUDI DI MILANO", "Grado": "Università", "Indirizzo": "VIA CELORIA GIOVANNI 2", "MUNICIPIO": 3, "Quartiere": null, "Longitudine": 9.2271759822651198, "Latitudine": 45.476750780245297, "NIL": "CITTA' STUDI", "icon": "id-card" }, "geometry": { "type": "Point", "coordinates": [ 9.22717598226512, 45.476750780245297 ] } },
{ "type": "Feature", "properties": { "Denominazione": "UNIVERSITA' DEGLI STUDI DI MILANO", "Grado": "Università", "Indirizzo": "VIA CELORIA GIOVANNI 2", "MUNICIPIO": 3, "Quartiere": null, "Longitudine": 9.2271721880137694, "Latitudine": 45.476750991198003, "NIL": "CITTA' STUDI", "icon": "id-card" }, "geometry": { "type": "Point", "coordinates": [ 9.227172188013769, 45.476750991198003 ] } },
{ "type": "Feature", "properties": { "Denominazione": "UNIVERSITA' DEGLI STUDI DI MILANO", "Grado": "Università", "Indirizzo": "VIA CELORIA GIOVANNI 2", "MUNICIPIO": 3, "Quartiere": null, "Longitudine": 9.2271683937727307, "Latitudine": 45.476751202150098, "NIL": "CITTA' STUDI", "icon": "id-card" }, "geometry": { "type": "Point", "coordinates": [ 9.227168393772731, 45.476751202150098 ] } },
{ "type": "Feature", "properties": { "Denominazione": "UNIVERSITA' DEGLI STUDI DI MILANO", "Grado": "Università", "Indirizzo": "VIA CELORIA GIOVANNI 2", "MUNICIPIO": 3, "Quartiere": null, "Longitudine": 9.2271645995420108, "Latitudine": 45.476751413101503, "NIL": "CITTA' STUDI", "icon": "id-card" }, "geometry": { "type": "Point", "coordinates": [ 9.227164599542011, 45.476751413101503 ] } },
{ "type": "Feature", "properties": { "Denominazione": "UNIVERSITA' DEGLI STUDI DI MILANO", "Grado": "Università", "Indirizzo": "VIA CELORIA GIOVANNI 2", "MUNICIPIO": 3, "Quartiere": null, "Longitudine": 9.2271532169117307, "Latitudine": 45.476752045952097, "NIL": "CITTA' STUDI", "icon": "id-card" }, "geometry": { "type": "Point", "coordinates": [ 9.227153216911731, 45.476752045952097 ] } },
{ "type": "Feature", "properties": { "Denominazione": "UNIVERSITA' DEGLI STUDI DI MILANO", "Grado": "Università", "Indirizzo": "VIA CELORIA GIOVANNI 2", "MUNICIPIO": 3, "Quartiere": null, "Longitudine": 9.2271456285431004, "Latitudine": 45.476752467849501, "NIL": "CITTA' STUDI", "icon": "id-card" }, "geometry": { "type": "Point", "coordinates": [ 9.2271456285431, 45.476752467849501 ] } },
{ "type": "Feature", "properties": { "Denominazione": "UNIVERSITA' DEGLI STUDI DI MILANO", "Grado": "Università", "Indirizzo": "VIA CELORIA GIOVANNI 2", "MUNICIPIO": 3, "Quartiere": null, "Longitudine": 9.2271570111115206, "Latitudine": 45.476751835002602, "NIL": "CITTA' STUDI", "icon": "id-card" }, "geometry": { "type": "Point", "coordinates": [ 9.227157011111521, 45.476751835002602 ] } },
{ "type": "Feature", "properties": { "Denominazione": "UNIVERSITA' DEGLI STUDI DI MILANO", "Grado": "Università", "Indirizzo": "VIA CELORIA GIOVANNI 2", "MUNICIPIO": 3, "Quartiere": null, "Longitudine": 9.2271835707987506, "Latitudine": 45.476750358338101, "NIL": "CITTA' STUDI", "icon": "id-card" }, "geometry": { "type": "Point", "coordinates": [ 9.227183570798751, 45.476750358338101 ] } },
{ "type": "Feature", "properties": { "Denominazione": "UNIVERSITA' DEGLI STUDI DI MILANO", "Grado": "Università", "Indirizzo": "VIA GOLGI CAMILLO 19", "MUNICIPIO": 3, "Quartiere": null, "Longitudine": 9.2341259775630107, "Latitudine": 45.475512199786102, "NIL": "CITTA' STUDI", "icon": "id-card" }, "geometry": { "type": "Point", "coordinates": [ 9.234125977563011, 45.475512199786102 ] } },
{ "type": "Feature", "properties": { "Denominazione": "UNIVERSITA' DEGLI STUDI DI MILANO", "Grado": "Università", "Indirizzo": "VIA BALZARETTI GIUSEPPE 9", "MUNICIPIO": 3, "Quartiere": null, "Longitudine": 9.22076379197037, "Latitudine": 45.476997987980702, "NIL": "BUENOS AIRES - PORTA VENEZIA - PORTA MONFORTE", "icon": "id-card" }, "geometry": { "type": "Point", "coordinates": [ 9.22076379197037, 45.476997987980702 ] } },
{ "type": "Feature", "properties": { "Denominazione": "UNIVERSITA' DEGLI STUDI DI MILANO", "Grado": "Università", "Indirizzo": "VIA BALZARETTI GIUSEPPE 9", "MUNICIPIO": 3, "Quartiere": null, "Longitudine": 9.2207562383112105, "Latitudine": 45.476998407797197, "NIL": "BUENOS AIRES - PORTA VENEZIA - PORTA MONFORTE", "icon": "id-card" }, "geometry": { "type": "Point", "coordinates": [ 9.22075623831121, 45.476998407797197 ] } },
{ "type": "Feature", "properties": { "Denominazione": "UNIVERSITA' DEGLI STUDI DI MILANO", "Grado": "Università", "Indirizzo": "VIA MANGIAGALLI LUIGI 31", "MUNICIPIO": 3, "Quartiere": null, "Longitudine": 9.2282198769914903, "Latitudine": 45.474406293465698, "NIL": "CITTA' STUDI", "icon": "id-card" }, "geometry": { "type": "Point", "coordinates": [ 9.22821987699149, 45.474406293465698 ] } },
{ "type": "Feature", "properties": { "Denominazione": "UNIVERSITA' DEGLI STUDI DI MILANO", "Grado": "Università", "Indirizzo": "VIA COLOMBO GIUSEPPE 71", "MUNICIPIO": 3, "Quartiere": null, "Longitudine": 9.2264251479099997, "Latitudine": 45.4739174346251, "NIL": "CITTA' STUDI", "icon": "id-card" }, "geometry": { "type": "Point", "coordinates": [ 9.22642514791, 45.4739174346251 ] } },
{ "type": "Feature", "properties": { "Denominazione": "UNIVERSITA' DEGLI STUDI DI MILANO", "Grado": "Università", "Indirizzo": "VIA MANGIAGALLI LUIGI 25", "MUNICIPIO": 3, "Quartiere": null, "Longitudine": 9.2268316005325506, "Latitudine": 45.474360151181699, "NIL": "CITTA' STUDI", "icon": "id-card" }, "geometry": { "type": "Point", "coordinates": [ 9.226831600532551, 45.474360151181699 ] } },
{ "type": "Feature", "properties": { "Denominazione": "UNIVERSITA' DEGLI STUDI DI MILANO", "Grado": "Università", "Indirizzo": "VIA VENEZIAN GIACOMO 21", "MUNICIPIO": 3, "Quartiere": null, "Longitudine": 9.2330639841792692, "Latitudine": 45.474405070724401, "NIL": "CITTA' STUDI", "icon": "id-card" }, "geometry": { "type": "Point", "coordinates": [ 9.233063984179269, 45.474405070724401 ] } },
{ "type": "Feature", "properties": { "Denominazione": "UNIVERSITA' DEGLI STUDI DI MILANO", "Grado": "Università", "Indirizzo": "VIA VENEZIAN GIACOMO 21", "MUNICIPIO": 3, "Quartiere": null, "Longitudine": 9.2330487447931002, "Latitudine": 45.474405918355799, "NIL": "CITTA' STUDI", "icon": "id-card" }, "geometry": { "type": "Point", "coordinates": [ 9.2330487447931, 45.474405918355799 ] } },
{ "type": "Feature", "properties": { "Denominazione": "UNIVERSITA' DEGLI STUDI DI MILANO", "Grado": "Università", "Indirizzo": "VIA VANVITELLI LUIGI 32", "MUNICIPIO": 3, "Quartiere": null, "Longitudine": 9.2214218506125203, "Latitudine": 45.472832976491503, "NIL": "BUENOS AIRES - PORTA VENEZIA - PORTA MONFORTE", "icon": "id-card" }, "geometry": { "type": "Point", "coordinates": [ 9.22142185061252, 45.472832976491503 ] } },
{ "type": "Feature", "properties": { "Denominazione": "UNIVERSITA' DEGLI STUDI DI MILANO", "Grado": "Università", "Indirizzo": "VIA SALDINI CESARE 50", "MUNICIPIO": 3, "Quartiere": null, "Longitudine": 9.2274366183474807, "Latitudine": 45.473880715276898, "NIL": "CITTA' STUDI", "icon": "id-card" }, "geometry": { "type": "Point", "coordinates": [ 9.227436618347481, 45.473880715276898 ] } },
{ "type": "Feature", "properties": { "Denominazione": "UNIVERSITA' DEGLI STUDI DI MILANO", "Grado": "Università", "Indirizzo": "VIA PASCAL CARLO 38", "MUNICIPIO": 3, "Quartiere": null, "Longitudine": 9.2351048180663202, "Latitudine": 45.478429232793701, "NIL": "CITTA' STUDI", "icon": "id-card" }, "geometry": { "type": "Point", "coordinates": [ 9.23510481806632, 45.478429232793701 ] } },
{ "type": "Feature", "properties": { "Denominazione": "UNIVERSITA' DEGLI STUDI DI MILANO", "Grado": "Università", "Indirizzo": "VIA FESTA DEL PERDONO 7", "MUNICIPIO": 1, "Quartiere": null, "Longitudine": 9.1939037840826394, "Latitudine": 45.460357286424298, "NIL": "DUOMO", "icon": "id-card" }, "geometry": { "type": "Point", "coordinates": [ 9.193903784082639, 45.460357286424298 ] } },
{ "type": "Feature", "properties": { "Denominazione": "UNIVERSITA' DEGLI STUDI DI MILANO", "Grado": "Università", "Indirizzo": "VIA FESTA DEL PERDONO 7", "MUNICIPIO": 1, "Quartiere": null, "Longitudine": 9.1938963820169395, "Latitudine": 45.460357697485001, "NIL": "DUOMO", "icon": "id-card" }, "geometry": { "type": "Point", "coordinates": [ 9.193896382016939, 45.460357697485001 ] } },
{ "type": "Feature", "properties": { "Denominazione": "UNIVERSITA' DEGLI STUDI DI MILANO", "Grado": "Università", "Indirizzo": "VIA FESTA DEL PERDONO 7", "MUNICIPIO": 1, "Quartiere": null, "Longitudine": 9.1938926809988395, "Latitudine": 45.460357903014497, "NIL": "DUOMO", "icon": "id-card" }, "geometry": { "type": "Point", "coordinates": [ 9.193892680998839, 45.460357903014497 ] } },
{ "type": "Feature", "properties": { "Denominazione": "UNIVERSITA' DEGLI STUDI DI MILANO", "Grado": "Università", "Indirizzo": "VIA FESTA DEL PERDONO 7", "MUNICIPIO": 1, "Quartiere": null, "Longitudine": 9.1938889799905894, "Latitudine": 45.460358108543403, "NIL": "DUOMO", "icon": "id-card" }, "geometry": { "type": "Point", "coordinates": [ 9.193888979990589, 45.460358108543403 ] } },
{ "type": "Feature", "properties": { "Denominazione": "UNIVERSITA' DEGLI STUDI DI MILANO", "Grado": "Università", "Indirizzo": "VIA FESTA DEL PERDONO 7", "MUNICIPIO": 1, "Quartiere": null, "Longitudine": 9.1938408677783592, "Latitudine": 45.4603607803652, "NIL": "DUOMO", "icon": "id-card" }, "geometry": { "type": "Point", "coordinates": [ 9.193840867778359, 45.4603607803652 ] } },
{ "type": "Feature", "properties": { "Denominazione": "UNIVERSITA' DEGLI STUDI DI MILANO", "Grado": "Università", "Indirizzo": "VIA FESTA DEL PERDONO 7", "MUNICIPIO": 1, "Quartiere": null, "Longitudine": 9.1938741760559193, "Latitudine": 45.460358930653001, "NIL": "DUOMO", "icon": "id-card" }, "geometry": { "type": "Point", "coordinates": [ 9.193874176055919, 45.460358930653001 ] } },
{ "type": "Feature", "properties": { "Denominazione": "UNIVERSITA' DEGLI STUDI DI MILANO", "Grado": "Università", "Indirizzo": "VIA FESTA DEL PERDONO 7", "MUNICIPIO": 1, "Quartiere": null, "Longitudine": 9.1938852789921608, "Latitudine": 45.460358314071698, "NIL": "DUOMO", "icon": "id-card" }, "geometry": { "type": "Point", "coordinates": [ 9.193885278992161, 45.460358314071698 ] } },
{ "type": "Feature", "properties": { "Denominazione": "UNIVERSITA' DEGLI STUDI DI MILANO", "Grado": "Università", "Indirizzo": "VIA FESTA DEL PERDONO 7", "MUNICIPIO": 1, "Quartiere": null, "Longitudine": 9.1938778770248302, "Latitudine": 45.460358725126497, "NIL": "DUOMO", "icon": "id-card" }, "geometry": { "type": "Point", "coordinates": [ 9.19387787702483, 45.460358725126497 ] } },
{ "type": "Feature", "properties": { "Denominazione": "UNIVERSITA' DEGLI STUDI DI MILANO", "Grado": "Università", "Indirizzo": "VIA FESTA DEL PERDONO 7", "MUNICIPIO": 1, "Quartiere": null, "Longitudine": 9.1938815780035696, "Latitudine": 45.460358519599403, "NIL": "DUOMO", "icon": "id-card" }, "geometry": { "type": "Point", "coordinates": [ 9.19388157800357, 45.460358519599403 ] } },
{ "type": "Feature", "properties": { "Denominazione": "UNIVERSITA' DEGLI STUDI DI MILANO", "Grado": "Università", "Indirizzo": "VIA FESTA DEL PERDONO 7", "MUNICIPIO": 1, "Quartiere": null, "Longitudine": 9.1938704750968494, "Latitudine": 45.460359136179001, "NIL": "DUOMO", "icon": "id-card" }, "geometry": { "type": "Point", "coordinates": [ 9.193870475096849, 45.460359136179001 ] } },
{ "type": "Feature", "properties": { "Denominazione": "UNIVERSITA' DEGLI STUDI DI MILANO", "Grado": "Università", "Indirizzo": "VIA NOTO 8", "MUNICIPIO": 5, "Quartiere": null, "Longitudine": 9.1990717365269195, "Latitudine": 45.430943069886503, "NIL": "VIGENTINO - Q.RE FATIMA", "icon": "id-card" }, "geometry": { "type": "Point", "coordinates": [ 9.199071736526919, 45.430943069886503 ] } },
{ "type": "Feature", "properties": { "Denominazione": "UNIVERSITA' DEGLI STUDI DI MILANO", "Grado": "Università", "Indirizzo": "VIA FESTA DEL PERDONO 7", "MUNICIPIO": 1, "Quartiere": null, "Longitudine": 9.1938593722786504, "Latitudine": 45.460359752753298, "NIL": "DUOMO", "icon": "id-card" }, "geometry": { "type": "Point", "coordinates": [ 9.19385937227865, 45.460359752753298 ] } },
{ "type": "Feature", "properties": { "Denominazione": "UNIVERSITA' DEGLI STUDI DI MILANO", "Grado": "Università", "Indirizzo": "VIA FESTA DEL PERDONO 7", "MUNICIPIO": 1, "Quartiere": null, "Longitudine": 9.1938778770248408, "Latitudine": 45.460358725126397, "NIL": "DUOMO", "icon": "id-card" }, "geometry": { "type": "Point", "coordinates": [ 9.193877877024841, 45.460358725126397 ] } },
{ "type": "Feature", "properties": { "Denominazione": "UNIVERSITA' DEGLI STUDI DI MILANO", "Grado": "Università", "Indirizzo": "VIA FESTA DEL PERDONO 7", "MUNICIPIO": 1, "Quartiere": null, "Longitudine": 9.1938482695489494, "Latitudine": 45.460360369322103, "NIL": "DUOMO", "icon": "id-card" }, "geometry": { "type": "Point", "coordinates": [ 9.193848269548949, 45.460360369322103 ] } },
{ "type": "Feature", "properties": { "Denominazione": "UNIVERSITA' DEGLI STUDI DI MILANO", "Grado": "Università", "Indirizzo": "VIA FESTA DEL PERDONO 7", "MUNICIPIO": 1, "Quartiere": null, "Longitudine": 9.1938704750968405, "Latitudine": 45.460359136178901, "NIL": "DUOMO", "icon": "id-card" }, "geometry": { "type": "Point", "coordinates": [ 9.193870475096841, 45.460359136178901 ] } },
{ "type": "Feature", "properties": { "Denominazione": "UNIVERSITA' DEGLI STUDI DI MILANO", "Grado": "Università", "Indirizzo": "VIA FESTA DEL PERDONO 7", "MUNICIPIO": 1, "Quartiere": null, "Longitudine": 9.1938519704490105, "Latitudine": 45.460360163799699, "NIL": "DUOMO", "icon": "id-card" }, "geometry": { "type": "Point", "coordinates": [ 9.19385197044901, 45.460360163799699 ] } },
{ "type": "Feature", "properties": { "Denominazione": "UNIVERSITA' DEGLI STUDI DI MILANO", "Grado": "Università", "Indirizzo": "VIA CONSERVATORIO 7", "MUNICIPIO": 1, "Quartiere": null, "Longitudine": 9.2026744459363101, "Latitudine": 45.465770640879001, "NIL": "GUASTALLA", "icon": "id-card" }, "geometry": { "type": "Point", "coordinates": [ 9.20267444593631, 45.465770640879001 ] } },
{ "type": "Feature", "properties": { "Denominazione": "UNIVERSITA' DEGLI STUDI DI MILANO", "Grado": "Università", "Indirizzo": "VIA NOTO 8", "MUNICIPIO": 5, "Quartiere": null, "Longitudine": 9.1991051163120794, "Latitudine": 45.430941213483102, "NIL": "VIGENTINO - Q.RE FATIMA", "icon": "id-card" }, "geometry": { "type": "Point", "coordinates": [ 9.199105116312079, 45.430941213483102 ] } },
{ "type": "Feature", "properties": { "Denominazione": "UNIVERSITA' DEGLI STUDI DI MILANO", "Grado": "Università", "Indirizzo": "VIA NOTO 8", "MUNICIPIO": 5, "Quartiere": null, "Longitudine": 9.1990865718882393, "Latitudine": 45.430942244824301, "NIL": "VIGENTINO - Q.RE FATIMA", "icon": "id-card" }, "geometry": { "type": "Point", "coordinates": [ 9.199086571888239, 45.430942244824301 ] } },
{ "type": "Feature", "properties": { "Denominazione": "UNIVERSITA' DEGLI STUDI DI MILANO", "Grado": "Università", "Indirizzo": "VIA FESTA DEL PERDONO 7", "MUNICIPIO": 1, "Quartiere": null, "Longitudine": 9.1938371669078407, "Latitudine": 45.460360985885799, "NIL": "DUOMO", "icon": "id-card" }, "geometry": { "type": "Point", "coordinates": [ 9.193837166907841, 45.460360985885799 ] } },
{ "type": "Feature", "properties": { "Denominazione": "UNIVERSITA' DEGLI STUDI DI MILANO", "Grado": "Università", "Indirizzo": "VIA FESTA DEL PERDONO 7", "MUNICIPIO": 1, "Quartiere": null, "Longitudine": 9.1938408677783805, "Latitudine": 45.4603607803652, "NIL": "DUOMO", "icon": "id-card" }, "geometry": { "type": "Point", "coordinates": [ 9.19384086777838, 45.4603607803652 ] } },
{ "type": "Feature", "properties": { "Denominazione": "UNIVERSITA' DEGLI STUDI DI MILANO", "Grado": "Università", "Indirizzo": "VIA NOTO 6", "MUNICIPIO": 5, "Quartiere": null, "Longitudine": 9.2004736789694697, "Latitudine": 45.431150411196803, "NIL": "VIGENTINO - Q.RE FATIMA", "icon": "id-card" }, "geometry": { "type": "Point", "coordinates": [ 9.20047367896947, 45.431150411196803 ] } },
{ "type": "Feature", "properties": { "Denominazione": "UNIVERSITA' DEGLI STUDI DI MILANO", "Grado": "Università", "Indirizzo": "VIA FESTA DEL PERDONO 7", "MUNICIPIO": 1, "Quartiere": null, "Longitudine": 9.1938260643552194, "Latitudine": 45.460361602444202, "NIL": "DUOMO", "icon": "id-card" }, "geometry": { "type": "Point", "coordinates": [ 9.193826064355219, 45.460361602444202 ] } },
{ "type": "Feature", "properties": { "Denominazione": "UNIVERSITA' DEGLI STUDI DI MILANO", "Grado": "Università", "Indirizzo": "VIA FESTA DEL PERDONO 3", "MUNICIPIO": 1, "Quartiere": null, "Longitudine": 9.19444384484542, "Latitudine": 45.460950999751397, "NIL": "DUOMO", "icon": "id-card" }, "geometry": { "type": "Point", "coordinates": [ 9.19444384484542, 45.460950999751397 ] } },
{ "type": "Feature", "properties": { "Denominazione": "UNIVERSITA' DEGLI STUDI DI MILANO", "Grado": "Università", "Indirizzo": "VIA FESTA DEL PERDONO 7", "MUNICIPIO": 1, "Quartiere": null, "Longitudine": 9.1938556713588895, "Latitudine": 45.460359958276797, "NIL": "DUOMO", "icon": "id-card" }, "geometry": { "type": "Point", "coordinates": [ 9.193855671358889, 45.460359958276797 ] } },
{ "type": "Feature", "properties": { "Denominazione": "UNIVERSITA' DEGLI STUDI DI MILANO", "Grado": "Università", "Indirizzo": "VIA MERCALLI GIUSEPPE 21", "MUNICIPIO": 1, "Quartiere": null, "Longitudine": 9.1907411180502994, "Latitudine": 45.455475179554, "NIL": "PORTA VIGENTINA - PORTA LODOVICA", "icon": "id-card" }, "geometry": { "type": "Point", "coordinates": [ 9.190741118050299, 45.455475179554 ] } },
{ "type": "Feature", "properties": { "Denominazione": "UNIVERSITA' DEGLI STUDI DI MILANO", "Grado": "Università", "Indirizzo": "VIA MERCALLI GIUSEPPE 21", "MUNICIPIO": 1, "Quartiere": null, "Longitudine": 9.1907485012937506, "Latitudine": 45.455474769529097, "NIL": "PORTA VIGENTINA - PORTA LODOVICA", "icon": "id-card" }, "geometry": { "type": "Point", "coordinates": [ 9.190748501293751, 45.455474769529097 ] } },
{ "type": "Feature", "properties": { "Denominazione": "UNIVERSITA' DEGLI STUDI DI MILANO", "Grado": "Università", "Indirizzo": "PZA SANT' ALESSANDRO 1", "MUNICIPIO": 1, "Quartiere": null, "Longitudine": 9.1864512883055998, "Latitudine": 45.461220496493603, "NIL": "DUOMO", "icon": "id-card" }, "geometry": { "type": "Point", "coordinates": [ 9.1864512883056, 45.461220496493603 ] } },
{ "type": "Feature", "properties": { "Denominazione": "UNIVERSITA' DEGLI STUDI DI MILANO", "Grado": "Università", "Indirizzo": "VIA CONSERVATORIO 7", "MUNICIPIO": 1, "Quartiere": null, "Longitudine": 9.2026707203048002, "Latitudine": 45.465770847829901, "NIL": "GUASTALLA", "icon": "id-card" }, "geometry": { "type": "Point", "coordinates": [ 9.2026707203048, 45.465770847829901 ] } },
{ "type": "Feature", "properties": { "Denominazione": "UNIVERSITA' DEGLI STUDI DI MILANO", "Grado": "Università", "Indirizzo": "VIA FESTA DEL PERDONO 3", "MUNICIPIO": 1, "Quartiere": null, "Longitudine": 9.1944253319377793, "Latitudine": 45.4609520278388, "NIL": "DUOMO", "icon": "id-card" }, "geometry": { "type": "Point", "coordinates": [ 9.194425331937779, 45.4609520278388 ] } },
{ "type": "Feature", "properties": { "Denominazione": "UNIVERSITA' DEGLI STUDI DI MILANO", "Grado": "Università", "Indirizzo": "VIA NOTO 6", "MUNICIPIO": 5, "Quartiere": null, "Longitudine": 9.2004699663604708, "Latitudine": 45.431150617686001, "NIL": "VIGENTINO - Q.RE FATIMA", "icon": "id-card" }, "geometry": { "type": "Point", "coordinates": [ 9.200469966360471, 45.431150617686001 ] } },
{ "type": "Feature", "properties": { "Denominazione": "UNIVERSITA' DEGLI STUDI DI MILANO", "Grado": "Università", "Indirizzo": "VIA NOTO 8", "MUNICIPIO": 5, "Quartiere": null, "Longitudine": 9.1990680277112897, "Latitudine": 45.4309432761506, "NIL": "VIGENTINO - Q.RE FATIMA", "icon": "id-card" }, "geometry": { "type": "Point", "coordinates": [ 9.19906802771129, 45.4309432761506 ] } },
{ "type": "Feature", "properties": { "Denominazione": "UNIVERSITA' DEGLI STUDI DI MILANO", "Grado": "Università", "Indirizzo": "VIA FESTA DEL PERDONO 7", "MUNICIPIO": 1, "Quartiere": null, "Longitudine": 9.1938223635240206, "Latitudine": 45.460361807962499, "NIL": "DUOMO", "icon": "id-card" }, "geometry": { "type": "Point", "coordinates": [ 9.193822363524021, 45.460361807962499 ] } },
{ "type": "Feature", "properties": { "Denominazione": "UNIVERSITA' DEGLI STUDI DI MILANO", "Grado": "Università", "Indirizzo": "VIA FESTA DEL PERDONO 7", "MUNICIPIO": 1, "Quartiere": null, "Longitudine": 9.1938223635240206, "Latitudine": 45.4603618079624, "NIL": "DUOMO", "icon": "id-card" }, "geometry": { "type": "Point", "coordinates": [ 9.193822363524021, 45.4603618079624 ] } },
{ "type": "Feature", "properties": { "Denominazione": "UNIVERSITA' DEGLI STUDI DI MILANO", "Grado": "Università", "Indirizzo": "VIA FESTA DEL PERDONO 7", "MUNICIPIO": 1, "Quartiere": null, "Longitudine": 9.1938334660471508, "Latitudine": 45.460361191405902, "NIL": "DUOMO", "icon": "id-card" }, "geometry": { "type": "Point", "coordinates": [ 9.193833466047151, 45.460361191405902 ] } },
{ "type": "Feature", "properties": { "Denominazione": "UNIVERSITA' DEGLI STUDI DI MILANO", "Grado": "Università", "Indirizzo": "VIA FESTA DEL PERDONO 7", "MUNICIPIO": 1, "Quartiere": null, "Longitudine": 9.1938186627026592, "Latitudine": 45.4603620134802, "NIL": "DUOMO", "icon": "id-card" }, "geometry": { "type": "Point", "coordinates": [ 9.193818662702659, 45.4603620134802 ] } },
{ "type": "Feature", "properties": { "Denominazione": "UNIVERSITA' DEGLI STUDI DI MILANO", "Grado": "Università", "Indirizzo": "VIA FESTA DEL PERDONO 3", "MUNICIPIO": 1, "Quartiere": null, "Longitudine": 9.1944290344996293, "Latitudine": 45.460951822222498, "NIL": "DUOMO", "icon": "id-card" }, "geometry": { "type": "Point", "coordinates": [ 9.194429034499629, 45.460951822222498 ] } },
{ "type": "Feature", "properties": { "Denominazione": "UNIVERSITA' DEGLI STUDI DI MILANO", "Grado": "Università", "Indirizzo": "VIA FESTA DEL PERDONO 7", "MUNICIPIO": 1, "Quartiere": null, "Longitudine": 9.1938482695489796, "Latitudine": 45.460360369322203, "NIL": "DUOMO", "icon": "id-card" }, "geometry": { "type": "Point", "coordinates": [ 9.19384826954898, 45.460360369322203 ] } },
{ "type": "Feature", "properties": { "Denominazione": "UNIVERSITA' DEGLI STUDI DI MILANO", "Grado": "Università", "Indirizzo": "PZA SANT' ALESSANDRO 1", "MUNICIPIO": 1, "Quartiere": null, "Longitudine": 9.1864549696830302, "Latitudine": 45.461220292145299, "NIL": "DUOMO", "icon": "id-card" }, "geometry": { "type": "Point", "coordinates": [ 9.18645496968303, 45.461220292145299 ] } },
{ "type": "Feature", "properties": { "Denominazione": "UNIVERSITA' DEGLI STUDI DI MILANO BICOCCA", "Grado": "Università", "Indirizzo": "VIA BICOCCA DEGLI ARCIMBOLDI 8", "MUNICIPIO": 9, "Quartiere": null, "Longitudine": 9.2133987858411697, "Latitudine": 45.517282692822, "NIL": "BICOCCA", "icon": "id-card" }, "geometry": { "type": "Point", "coordinates": [ 9.21339878584117, 45.517282692822 ] } },
{ "type": "Feature", "properties": { "Denominazione": "UNIVERSITA' DEGLI STUDI DI MILANO", "Grado": "Università", "Indirizzo": "VIA NOTO 8", "MUNICIPIO": 5, "Quartiere": null, "Longitudine": 9.1990569013236296, "Latitudine": 45.430943894939297, "NIL": "VIGENTINO - Q.RE FATIMA", "icon": "id-card" }, "geometry": { "type": "Point", "coordinates": [ 9.19905690132363, 45.430943894939297 ] } },
{ "type": "Feature", "properties": { "Denominazione": "UNIVERSITA' DEGLI STUDI DI MILANO", "Grado": "Università", "Indirizzo": "VIA FESTA DEL PERDONO 7", "MUNICIPIO": 1, "Quartiere": null, "Longitudine": 9.1938371669078496, "Latitudine": 45.460360985885899, "NIL": "DUOMO", "icon": "id-card" }, "geometry": { "type": "Point", "coordinates": [ 9.19383716690785, 45.460360985885899 ] } },
{ "type": "Feature", "properties": { "Denominazione": "UNIVERSITA' DEGLI STUDI DI MILANO", "Grado": "Università", "Indirizzo": "VIA VANVITELLI LUIGI 32", "MUNICIPIO": 3, "Quartiere": null, "Longitudine": 9.22139918423448, "Latitudine": 45.472834236496297, "NIL": "BUENOS AIRES - PORTA VENEZIA - PORTA MONFORTE", "icon": "id-card" }, "geometry": { "type": "Point", "coordinates": [ 9.22139918423448, 45.472834236496297 ] } },
{ "type": "Feature", "properties": { "Denominazione": "UNIVERSITA' DEGLI STUDI DI MILANO", "Grado": "Università", "Indirizzo": "VIA GRASSI GIOVANNI BATTISTA 74", "MUNICIPIO": 8, "Quartiere": null, "Longitudine": 9.1201622528918396, "Latitudine": 45.517526975533102, "NIL": "ROSERIO", "icon": "id-card" }, "geometry": { "type": "Point", "coordinates": [ 9.12016225289184, 45.517526975533102 ] } },
{ "type": "Feature", "properties": { "Denominazione": "UNIVERSITA' DEGLI STUDI DI MILANO", "Grado": "Università", "Indirizzo": "VIA SFORZA FRANCESCO 35", "MUNICIPIO": 1, "Quartiere": null, "Longitudine": 9.1948915596247698, "Latitudine": 45.458962277083501, "NIL": "GUASTALLA", "icon": "id-card" }, "geometry": { "type": "Point", "coordinates": [ 9.19489155962477, 45.458962277083501 ] } },
{ "type": "Feature", "properties": { "Denominazione": "UNIVERSITA' DEGLI STUDI DI MILANO", "Grado": "Università", "Indirizzo": "VIA FESTA DEL PERDONO 7", "MUNICIPIO": 1, "Quartiere": null, "Longitudine": 9.1937927572285698, "Latitudine": 45.4603634520874, "NIL": "DUOMO", "icon": "id-card" }, "geometry": { "type": "Point", "coordinates": [ 9.19379275722857, 45.4603634520874 ] } },
{ "type": "Feature", "properties": { "Denominazione": "UNIVERSITA' DEGLI STUDI DI MILANO", "Grado": "Università", "Indirizzo": "VIA FESTA DEL PERDONO 7", "MUNICIPIO": 1, "Quartiere": null, "Longitudine": 9.1939000830448805, "Latitudine": 45.460357491954902, "NIL": "DUOMO", "icon": "id-card" }, "geometry": { "type": "Point", "coordinates": [ 9.19390008304488, 45.460357491954902 ] } },
{ "type": "Feature", "properties": { "Denominazione": "UNIVERSITA' DEGLI STUDI DI MILANO BICOCCA", "Grado": "Università", "Indirizzo": "VIA TEMOLO LIBERO 3", "MUNICIPIO": 9, "Quartiere": null, "Longitudine": 9.2103674297124805, "Latitudine": 45.511957238469499, "NIL": "BICOCCA", "icon": "id-card" }, "geometry": { "type": "Point", "coordinates": [ 9.21036742971248, 45.511957238469499 ] } },
{ "type": "Feature", "properties": { "Denominazione": "UNIVERSITA' DEGLI STUDI DI MILANO", "Grado": "Università", "Indirizzo": "VIA FESTA DEL PERDONO 7", "MUNICIPIO": 1, "Quartiere": null, "Longitudine": 9.1938112610894596, "Latitudine": 45.460362424513697, "NIL": "DUOMO", "icon": "id-card" }, "geometry": { "type": "Point", "coordinates": [ 9.19381126108946, 45.460362424513697 ] } },
{ "type": "Feature", "properties": { "Denominazione": "UNIVERSITA' DEGLI STUDI DI MILANO", "Grado": "Università", "Indirizzo": "VIA FESTA DEL PERDONO 7", "MUNICIPIO": 1, "Quartiere": null, "Longitudine": 9.1938075602976195, "Latitudine": 45.460362630029699, "NIL": "DUOMO", "icon": "id-card" }, "geometry": { "type": "Point", "coordinates": [ 9.193807560297619, 45.460362630029699 ] } },
{ "type": "Feature", "properties": { "Denominazione": "UNIVERSITA' DEGLI STUDI DI MILANO", "Grado": "Università", "Indirizzo": "VIA FESTA DEL PERDONO 7", "MUNICIPIO": 1, "Quartiere": null, "Longitudine": 9.1938038595156097, "Latitudine": 45.460362835544998, "NIL": "DUOMO", "icon": "id-card" }, "geometry": { "type": "Point", "coordinates": [ 9.19380385951561, 45.460362835544998 ] } },
{ "type": "Feature", "properties": { "Denominazione": "UNIVERSITA' DEGLI STUDI DI MILANO", "Grado": "Università", "Indirizzo": "VIA FESTA DEL PERDONO 7", "MUNICIPIO": 1, "Quartiere": null, "Longitudine": 9.1938075602976106, "Latitudine": 45.4603626300296, "NIL": "DUOMO", "icon": "id-card" }, "geometry": { "type": "Point", "coordinates": [ 9.193807560297611, 45.4603626300296 ] } },
{ "type": "Feature", "properties": { "Denominazione": "UNIVERSITA' DEGLI STUDI DI MILANO", "Grado": "Università", "Indirizzo": "VIA CELORIA GIOVANNI 10", "MUNICIPIO": 3, "Quartiere": null, "Longitudine": 9.2287862209989999, "Latitudine": 45.4767553247653, "NIL": "CITTA' STUDI", "icon": "id-card" }, "geometry": { "type": "Point", "coordinates": [ 9.228786220999, 45.4767553247653 ] } },
{ "type": "Feature", "properties": { "Denominazione": "UNIVERSITA' DEGLI STUDI DI MILANO", "Grado": "Università", "Indirizzo": "VIA CELORIA GIOVANNI 10", "MUNICIPIO": 3, "Quartiere": null, "Longitudine": 9.2287482349716896, "Latitudine": 45.476757436990297, "NIL": "CITTA' STUDI", "icon": "id-card" }, "geometry": { "type": "Point", "coordinates": [ 9.22874823497169, 45.476757436990297 ] } },
{ "type": "Feature", "properties": { "Denominazione": "UNIVERSITA' DEGLI STUDI DI MILANO", "Grado": "Università", "Indirizzo": "VIA CELORIA GIOVANNI 10", "MUNICIPIO": 3, "Quartiere": null, "Longitudine": 9.2287824223497594, "Latitudine": 45.476755535990598, "NIL": "CITTA' STUDI", "icon": "id-card" }, "geometry": { "type": "Point", "coordinates": [ 9.228782422349759, 45.476755535990598 ] } },
{ "type": "Feature", "properties": { "Denominazione": "UNIVERSITA' DEGLI STUDI DI MILANO", "Grado": "Università", "Indirizzo": "VIA SALDINI CESARE 50", "MUNICIPIO": 3, "Quartiere": null, "Longitudine": 9.2274100580396592, "Latitudine": 45.4738821922328, "NIL": "CITTA' STUDI", "icon": "id-card" }, "geometry": { "type": "Point", "coordinates": [ 9.227410058039659, 45.4738821922328 ] } },
{ "type": "Feature", "properties": { "Denominazione": "UNIVERSITA' DEGLI STUDI DI MILANO", "Grado": "Università", "Indirizzo": "VIA GOLGI CAMILLO 19", "MUNICIPIO": 3, "Quartiere": null, "Longitudine": 9.2341908002562292, "Latitudine": 45.475508594218603, "NIL": "CITTA' STUDI", "icon": "id-card" }, "geometry": { "type": "Point", "coordinates": [ 9.234190800256229, 45.475508594218603 ] } },
{ "type": "Feature", "properties": { "Denominazione": "UNIVERSITA' DEGLI STUDI DI MILANO", "Grado": "Università", "Indirizzo": "VIA MANGIAGALLI LUIGI 34", "MUNICIPIO": 3, "Quartiere": null, "Longitudine": 9.2293497058395797, "Latitudine": 45.474094689142603, "NIL": "CITTA' STUDI", "icon": "id-card" }, "geometry": { "type": "Point", "coordinates": [ 9.22934970583958, 45.474094689142603 ] } },
{ "type": "Feature", "properties": { "Denominazione": "UNIVERSITA' DEGLI STUDI DI MILANO", "Grado": "Università", "Indirizzo": "VIA BOTTICELLI SANDRO 23", "MUNICIPIO": 3, "Quartiere": null, "Longitudine": 9.2288061396060392, "Latitudine": 45.473691452369899, "NIL": "CITTA' STUDI", "icon": "id-card" }, "geometry": { "type": "Point", "coordinates": [ 9.228806139606039, 45.473691452369899 ] } },
{ "type": "Feature", "properties": { "Denominazione": "UNIVERSITA' DEGLI STUDI DI MILANO", "Grado": "Università", "Indirizzo": "VIA CICOGNARA LEOPOLDO 7", "MUNICIPIO": 3, "Quartiere": null, "Longitudine": 9.2212922778518909, "Latitudine": 45.468781325820501, "NIL": "BUENOS AIRES - PORTA VENEZIA - PORTA MONFORTE", "icon": "id-card" }, "geometry": { "type": "Point", "coordinates": [ 9.221292277851891, 45.468781325820501 ] } },
{ "type": "Feature", "properties": { "Denominazione": "UNIVERSITA' DEGLI STUDI DI MILANO", "Grado": "Università", "Indirizzo": "VIA KRAMER ANTONIO 4A", "MUNICIPIO": 3, "Quartiere": null, "Longitudine": 9.2087279768048393, "Latitudine": 45.468687530280398, "NIL": "BUENOS AIRES - PORTA VENEZIA - PORTA MONFORTE", "icon": "id-card" }, "geometry": { "type": "Point", "coordinates": [ 9.208727976804839, 45.468687530280398 ] } },
{ "type": "Feature", "properties": { "Denominazione": "UNIVERSITA' DEGLI STUDI DI MILANO", "Grado": "Università", "Indirizzo": "VIA PACE 10", "MUNICIPIO": 1, "Quartiere": null, "Longitudine": 9.2029481486725295, "Latitudine": 45.458807626299603, "NIL": "GUASTALLA", "icon": "id-card" }, "geometry": { "type": "Point", "coordinates": [ 9.20294814867253, 45.458807626299603 ] } },
{ "type": "Feature", "properties": { "Denominazione": "UNIVERSITA' DEGLI STUDI DI MILANO", "Grado": "Università", "Indirizzo": "VIA PIO II 1", "MUNICIPIO": 7, "Quartiere": null, "Longitudine": 9.1153437338900094, "Latitudine": 45.469753619481203, "NIL": "FORZE ARMATE", "icon": "id-card" }, "geometry": { "type": "Point", "coordinates": [ 9.115343733890009, 45.469753619481203 ] } },
{ "type": "Feature", "properties": { "Denominazione": "UNIVERSITA' DEGLI STUDI DI MILANO", "Grado": "Università", "Indirizzo": "CSO DI PORTA NUOVA 23", "MUNICIPIO": 1, "Quartiere": null, "Longitudine": 9.1921631114597808, "Latitudine": 45.478572622598101, "NIL": "BRERA", "icon": "id-card" }, "geometry": { "type": "Point", "coordinates": [ 9.192163111459781, 45.478572622598101 ] } },
{ "type": "Feature", "properties": { "Denominazione": "UNIVERSITA' DEGLI STUDI DI MILANO", "Grado": "Università", "Indirizzo": "VIA VENEZIAN GIACOMO 1", "MUNICIPIO": 3, "Quartiere": null, "Longitudine": 9.2313656366853003, "Latitudine": 45.474385207399699, "NIL": "CITTA' STUDI", "icon": "id-card" }, "geometry": { "type": "Point", "coordinates": [ 9.2313656366853, 45.474385207399699 ] } },
{ "type": "Feature", "properties": { "Denominazione": "UNIVERSITA' DEGLI STUDI DI MILANO", "Grado": "Università", "Indirizzo": "VIA PACE 9", "MUNICIPIO": 1, "Quartiere": null, "Longitudine": 9.2031015633569808, "Latitudine": 45.459075777497198, "NIL": "GUASTALLA", "icon": "id-card" }, "geometry": { "type": "Point", "coordinates": [ 9.203101563356981, 45.459075777497198 ] } },
{ "type": "Feature", "properties": { "Denominazione": "UNIVERSITA' DEGLI STUDI DI MILANO", "Grado": "Università", "Indirizzo": "VIA PAREA CARLO 4", "MUNICIPIO": 4, "Quartiere": null, "Longitudine": 9.2624035984593007, "Latitudine": 45.444074986628799, "NIL": "MONLUE' - PONTE LAMBRO", "icon": "id-card" }, "geometry": { "type": "Point", "coordinates": [ 9.262403598459301, 45.444074986628799 ] } },
{ "type": "Feature", "properties": { "Denominazione": "UNIVERSITA' DEGLI STUDI DI MILANO", "Grado": "Università", "Indirizzo": "VIA MANGIAGALLI LUIGI 32", "MUNICIPIO": 3, "Quartiere": null, "Longitudine": 9.2288118412730693, "Latitudine": 45.474026008282998, "NIL": "CITTA' STUDI", "icon": "id-card" }, "geometry": { "type": "Point", "coordinates": [ 9.228811841273069, 45.474026008282998 ] } },
{ "type": "Feature", "properties": { "Denominazione": "UNIVERSITA' DEGLI STUDI DI MILANO", "Grado": "Università", "Indirizzo": "VIA TRENTACOSTE DOMENICO 2", "MUNICIPIO": 3, "Quartiere": null, "Longitudine": 9.24232845364509, "Latitudine": 45.472736554637798, "NIL": "LAMBRATE - ORTICA", "icon": "id-card" }, "geometry": { "type": "Point", "coordinates": [ 9.24232845364509, 45.472736554637798 ] } },
{ "type": "Feature", "properties": { "Denominazione": "UNIVERSITA' DEGLI STUDI DI MILANO", "Grado": "Università", "Indirizzo": "VIA VANZETTI AUGUSTO 7", "MUNICIPIO": 3, "Quartiere": null, "Longitudine": 9.23633308542815, "Latitudine": 45.473814816160399, "NIL": "CITTA' STUDI", "icon": "id-card" }, "geometry": { "type": "Point", "coordinates": [ 9.23633308542815, 45.473814816160399 ] } },
{ "type": "Feature", "properties": { "Denominazione": "UNIVERSITA' DEGLI STUDI DI MILANO BICOCCA", "Grado": "Università", "Indirizzo": "PZA DELL'ATENEO NUOVO 1", "MUNICIPIO": 9, "Quartiere": null, "Longitudine": 9.2138129863854701, "Latitudine": 45.518265334640901, "NIL": "BICOCCA", "icon": "id-card" }, "geometry": { "type": "Point", "coordinates": [ 9.21381298638547, 45.518265334640901 ] } },
{ "type": "Feature", "properties": { "Denominazione": "UNIVERSITA' DEGLI STUDI DI MILANO BICOCCA", "Grado": "Università", "Indirizzo": "PZA DELLA SCIENZA 1", "MUNICIPIO": 9, "Quartiere": null, "Longitudine": 9.2118793484858106, "Latitudine": 45.513357361259601, "NIL": "BICOCCA", "icon": "id-card" }, "geometry": { "type": "Point", "coordinates": [ 9.211879348485811, 45.513357361259601 ] } },
{ "type": "Feature", "properties": { "Denominazione": "UNIVERSITA' DEGLI STUDI DI MILANO BICOCCA", "Grado": "Università", "Indirizzo": "PZA DELLA SCIENZA 3", "MUNICIPIO": 9, "Quartiere": null, "Longitudine": 9.2105738841571601, "Latitudine": 45.513718873947099, "NIL": "BICOCCA", "icon": "id-card" }, "geometry": { "type": "Point", "coordinates": [ 9.21057388415716, 45.513718873947099 ] } },
{ "type": "Feature", "properties": { "Denominazione": "UNIVERSITA' DEGLI STUDI DI MILANO BICOCCA", "Grado": "Università", "Indirizzo": "VLE SARCA 336", "MUNICIPIO": 9, "Quartiere": null, "Longitudine": 9.2144970496588208, "Latitudine": 45.5254740815788, "NIL": "BICOCCA", "icon": "id-card" }, "geometry": { "type": "Point", "coordinates": [ 9.214497049658821, 45.5254740815788 ] } },
{ "type": "Feature", "properties": { "Denominazione": "UNIVERSITA' DEGLI STUDI DI MILANO BICOCCA", "Grado": "Università", "Indirizzo": "VIA COZZI ROBERTO 53", "MUNICIPIO": 9, "Quartiere": null, "Longitudine": 9.2125057668096293, "Latitudine": 45.5121244143089, "NIL": "BICOCCA", "icon": "id-card" }, "geometry": { "type": "Point", "coordinates": [ 9.212505766809629, 45.5121244143089 ] } },
{ "type": "Feature", "properties": { "Denominazione": "UNIVERSITA' DEGLI STUDI DI MILANO BICOCCA", "Grado": "Università", "Indirizzo": "PZA DELLA SCIENZA 4", "MUNICIPIO": 9, "Quartiere": null, "Longitudine": 9.2107515184642406, "Latitudine": 45.513931851118798, "NIL": "BICOCCA", "icon": "id-card" }, "geometry": { "type": "Point", "coordinates": [ 9.210751518464241, 45.513931851118798 ] } },
{ "type": "Feature", "properties": { "Denominazione": "UNIVERSITA' CATTOLICA DEL SACRO CUORE", "Grado": "Università", "Indirizzo": "LGO GEMELLI FRA' AGOSTINO 1", "MUNICIPIO": 1, "Quartiere": null, "Longitudine": 9.1767437346655996, "Latitudine": 45.462866909173101, "NIL": "DUOMO", "icon": "id-card" }, "geometry": { "type": "Point", "coordinates": [ 9.1767437346656, 45.462866909173101 ] } },
{ "type": "Feature", "properties": { "Denominazione": "UNIVERSITA' CATTOLICA DEL SACRO CUORE", "Grado": "Università", "Indirizzo": "VIA NECCHI LODOVICO 9", "MUNICIPIO": 1, "Quartiere": null, "Longitudine": 9.1779862734106903, "Latitudine": 45.462338351501401, "NIL": "DUOMO", "icon": "id-card" }, "geometry": { "type": "Point", "coordinates": [ 9.17798627341069, 45.462338351501401 ] } },
{ "type": "Feature", "properties": { "Denominazione": "UNIVERSITA' CATTOLICA DEL SACRO CUORE", "Grado": "Università", "Indirizzo": "VIA NECCHI LODOVICO 5", "MUNICIPIO": 1, "Quartiere": null, "Longitudine": 9.1778279280443193, "Latitudine": 45.462552380796801, "NIL": "DUOMO", "icon": "id-card" }, "geometry": { "type": "Point", "coordinates": [ 9.177827928044319, 45.462552380796801 ] } },
{ "type": "Feature", "properties": { "Denominazione": "UNIVERSITA' CATTOLICA DEL SACRO CUORE", "Grado": "Università", "Indirizzo": "VIA SANT' AGNESE 2", "MUNICIPIO": 1, "Quartiere": null, "Longitudine": 9.1777502074814006, "Latitudine": 45.465292008006898, "NIL": "DUOMO", "icon": "id-card" }, "geometry": { "type": "Point", "coordinates": [ 9.177750207481401, 45.465292008006898 ] } },
{ "type": "Feature", "properties": { "Denominazione": "POLITECNICO DI MILANO", "Grado": "Università", "Indirizzo": "VIA BONARDI EDOARDO 3", "MUNICIPIO": 3, "Quartiere": null, "Longitudine": 9.2276358522362703, "Latitudine": 45.479444384254002, "NIL": "CITTA' STUDI", "icon": "id-card" }, "geometry": { "type": "Point", "coordinates": [ 9.22763585223627, 45.479444384254002 ] } },
{ "type": "Feature", "properties": { "Denominazione": "UNIVERSITA' CATTOLICA DEL SACRO CUORE", "Grado": "Università", "Indirizzo": "VLE SUZZANI GIOVANNI 279", "MUNICIPIO": 9, "Quartiere": null, "Longitudine": 9.2088124144025407, "Latitudine": 45.526790406803102, "NIL": "NIGUARDA - CA' GRANDA - PRATO CENTENARO - Q.RE FULVIO TESTI", "icon": "id-card" }, "geometry": { "type": "Point", "coordinates": [ 9.208812414402541, 45.526790406803102 ] } },
{ "type": "Feature", "properties": { "Denominazione": "UNIVERSITA' CATTOLICA DEL SACRO CUORE", "Grado": "Università", "Indirizzo": "VIA CARDUCCI GIOSUE' 28", "MUNICIPIO": 1, "Quartiere": null, "Longitudine": 9.1741408140130201, "Latitudine": 45.463519117131099, "NIL": "MAGENTA - S. VITTORE", "icon": "id-card" },