{
"type": "FeatureCollection",
"crs": { "type": "name", "properties": { "name": "urn:ogc:def:crs:OGC:1.3:CRS84" } },
"features": [
{ "type": "Feature", "properties": { "<RowID>": "Row530", "ANNOSCOL": 1415, "CODICE": 3002, "DENOMINAZIONE": "LUCA BELTRAMI", "GRADO": "Scuola Secondaria", "TIPO": "Statale", "PARITARIA": "No", "INDIRIZZO": "Piazza GUGLIELMO MASSAIA 2", "CODVIA": 559, "CIVICO": "2", "MUNICIPIO": 1, "ID_NIL": 1, "NIL": "DUOMO", "LONG_X_4326": 9.181341281, "LAT_Y_4326": 45.461670712699998, "Location": "(45.4616707127, 9.181341281)", "GeoJSON": { "type": "FeatureCollection", "features": [ { "id": "0", "type": "Feature", "properties": { }, "geometry": { "type": "Point", "coordinates": [ 9.181341281, 45.4616707127 ] }, "bbox": [ 9.181341281, 45.4616707127, 9.181341281, 45.4616707127 ] } ], "bbox": [ 9.181341281, 45.4616707127, 9.181341281, 45.4616707127 ] } }, "geometry": { "type": "Point", "coordinates": [ 9.181341281, 45.461670712699998 ] } },
{ "type": "Feature", "properties": { "<RowID>": "Row531", "ANNOSCOL": 1415, "CODICE": 3003, "DENOMINAZIONE": "LUIGI CAGNOLA", "GRADO": "Scuola Secondaria", "TIPO": "Statale", "PARITARIA": "No", "INDIRIZZO": "Via SOLFERINO 52", "CODVIA": 1028, "CIVICO": "52", "MUNICIPIO": 1, "ID_NIL": 2, "NIL": "BRERA", "LONG_X_4326": 9.1887844510499992, "LAT_Y_4326": 45.479490837500002, "Location": "(45.4794908375, 9.18878445105)", "GeoJSON": { "type": "FeatureCollection", "features": [ { "id": "0", "type": "Feature", "properties": { }, "geometry": { "type": "Point", "coordinates": [ 9.18878445105, 45.4794908375 ] }, "bbox": [ 9.18878445105, 45.4794908375, 9.18878445105, 45.4794908375 ] } ], "bbox": [ 9.18878445105, 45.4794908375, 9.18878445105, 45.4794908375 ] } }, "geometry": { "type": "Point", "coordinates": [ 9.188784451049999, 45.479490837500002 ] } },
{ "type": "Feature", "properties": { "<RowID>": "Row532", "ANNOSCOL": 1415, "CODICE": 3004, "DENOMINAZIONE": "CAVALIERI BONAVENTURA", "GRADO": "Scuola Secondaria", "TIPO": "Statale", "PARITARIA": "No", "INDIRIZZO": "Via ANCO MARZIO 9", "CODVIA": 6231, "CIVICO": "9", "MUNICIPIO": 1, "ID_NIL": 7, "NIL": "MAGENTA - S. VITTORE", "LONG_X_4326": 9.1702823892299996, "LAT_Y_4326": 45.459829100500002, "Location": "(45.4598291005, 9.17028238923)", "GeoJSON": { "type": "FeatureCollection", "features": [ { "id": "0", "type": "Feature", "properties": { }, "geometry": { "type": "Point", "coordinates": [ 9.17028238923, 45.4598291005 ] }, "bbox": [ 9.17028238923, 45.4598291005, 9.17028238923, 45.4598291005 ] } ], "bbox": [ 9.17028238923, 45.4598291005, 9.17028238923, 45.4598291005 ] } }, "geometry": { "type": "Point", "coordinates": [ 9.17028238923, 45.459829100500002 ] } },
{ "type": "Feature", "properties": { "<RowID>": "Row533", "ANNOSCOL": 1415, "CODICE": 3005, "DENOMINAZIONE": "GIUSEPPE VERDI", "GRADO": "Scuola Secondaria", "TIPO": "Statale", "PARITARIA": "No", "INDIRIZZO": "Via FILIPPO CORRIDONI 34", "CODVIA": 3020, "CIVICO": "34", "MUNICIPIO": 1, "ID_NIL": 4, "NIL": "GUASTALLA", "LONG_X_4326": 9.20384126085, "LAT_Y_4326": 45.463534787500002, "Location": "(45.4635347875, 9.20384126085)", "GeoJSON": { "type": "FeatureCollection", "features": [ { "id": "0", "type": "Feature", "properties": { }, "geometry": { "type": "Point", "coordinates": [ 9.20384126085, 45.4635347875 ] }, "bbox": [ 9.20384126085, 45.4635347875, 9.20384126085, 45.4635347875 ] } ], "bbox": [ 9.20384126085, 45.4635347875, 9.20384126085, 45.4635347875 ] } }, "geometry": { "type": "Point", "coordinates": [ 9.20384126085, 45.463534787500002 ] } },
{ "type": "Feature", "properties": { "<RowID>": "Row534", "ANNOSCOL": 1415, "CODICE": 3006, "DENOMINAZIONE": "LUIGI MAJNO", "GRADO": "Scuola Secondaria", "TIPO": "Statale", "PARITARIA": "No", "INDIRIZZO": "Corso DI PORTA ROMANA 112", "CODVIA": 402, "CIVICO": "112", "MUNICIPIO": 1, "ID_NIL": 5, "NIL": "PORTA VIGENTINA - PORTA LODOVICA", "LONG_X_4326": 9.1982269780700001, "LAT_Y_4326": 45.454484756, "Location": "(45.454484756, 9.19822697807)", "GeoJSON": { "type": "FeatureCollection", "features": [ { "id": "0", "type": "Feature", "properties": { }, "geometry": { "type": "Point", "coordinates": [ 9.19822697807, 45.454484756 ] }, "bbox": [ 9.19822697807, 45.454484756, 9.19822697807, 45.454484756 ] } ], "bbox": [ 9.19822697807, 45.454484756, 9.19822697807, 45.454484756 ] } }, "geometry": { "type": "Point", "coordinates": [ 9.19822697807, 45.454484756 ] } },
{ "type": "Feature", "properties": { "<RowID>": "Row535", "ANNOSCOL": 1415, "CODICE": 3008, "DENOMINAZIONE": "LUIGI MAJNO", "GRADO": "Scuola Secondaria", "TIPO": "Statale", "PARITARIA": "No", "INDIRIZZO": "Via DELLA COMMENDA 22", "CODVIA": 3146, "CIVICO": "22", "MUNICIPIO": 1, "ID_NIL": 4, "NIL": "GUASTALLA", "LONG_X_4326": 9.1991042566099992, "LAT_Y_4326": 45.456141791500002, "Location": "(45.4561417915, 9.19910425661)", "GeoJSON": { "type": "FeatureCollection", "features": [ { "id": "0", "type": "Feature", "properties": { }, "geometry": { "type": "Point", "coordinates": [ 9.19910425661, 45.4561417915 ] }, "bbox": [ 9.19910425661, 45.4561417915, 9.19910425661, 45.4561417915 ] } ], "bbox": [ 9.19910425661, 45.4561417915, 9.19910425661, 45.4561417915 ] } }, "geometry": { "type": "Point", "coordinates": [ 9.199104256609999, 45.456141791500002 ] } },
{ "type": "Feature", "properties": { "<RowID>": "Row536", "ANNOSCOL": 1415, "CODICE": 3011, "DENOMINAZIONE": "LUIGI ROSSARI - ENRICHETTA CASTIGLIONI", "GRADO": "Scuola Secondaria", "TIPO": "Statale", "PARITARIA": "No", "INDIRIZZO": "Via SANTO SPIRITO 21", "CODVIA": 228, "CIVICO": "21", "MUNICIPIO": 1, "ID_NIL": 1, "NIL": "DUOMO", "LONG_X_4326": 9.1956053742700004, "LAT_Y_4326": 45.470570855299997, "Location": "(45.4705708553, 9.19560537427)", "GeoJSON": { "type": "FeatureCollection", "features": [ { "id": "0", "type": "Feature", "properties": { }, "geometry": { "type": "Point", "coordinates": [ 9.19560537427, 45.4705708553 ] }, "bbox": [ 9.19560537427, 45.4705708553, 9.19560537427, 45.4705708553 ] } ], "bbox": [ 9.19560537427, 45.4705708553, 9.19560537427, 45.4705708553 ] } }, "geometry": { "type": "Point", "coordinates": [ 9.19560537427, 45.470570855299997 ] } },
{ "type": "Feature", "properties": { "<RowID>": "Row537", "ANNOSCOL": 1415, "CODICE": 3012, "DENOMINAZIONE": "VIVAIO", "GRADO": "Scuola Secondaria", "TIPO": "Statale", "PARITARIA": "No", "INDIRIZZO": "Via VIVAIO 7", "CODVIA": 3041, "CIVICO": "7", "MUNICIPIO": 1, "ID_NIL": 4, "NIL": "GUASTALLA", "LONG_X_4326": 9.2040256409599994, "LAT_Y_4326": 45.468951455800003, "Location": "(45.4689514558, 9.20402564096)", "GeoJSON": { "type": "FeatureCollection", "features": [ { "id": "0", "type": "Feature", "properties": { }, "geometry": { "type": "Point", "coordinates": [ 9.20402564096, 45.4689514558 ] }, "bbox": [ 9.20402564096, 45.4689514558, 9.20402564096, 45.4689514558 ] } ], "bbox": [ 9.20402564096, 45.4689514558, 9.20402564096, 45.4689514558 ] } }, "geometry": { "type": "Point", "coordinates": [ 9.204025640959999, 45.468951455800003 ] } },
{ "type": "Feature", "properties": { "<RowID>": "Row538", "ANNOSCOL": 1415, "CODICE": 3013, "DENOMINAZIONE": "SETTI CARRARO DALLA CHIESA", "GRADO": "Scuola Secondaria", "TIPO": "Statale", "PARITARIA": "No", "INDIRIZZO": "Via PASSIONE 12", "CODVIA": 3033, "CIVICO": "12", "MUNICIPIO": 1, "ID_NIL": 4, "NIL": "GUASTALLA", "LONG_X_4326": 9.2021385105199993, "LAT_Y_4326": 45.464989444099999, "Location": "(45.4649894441, 9.20213851052)", "GeoJSON": { "type": "FeatureCollection", "features": [ { "id": "0", "type": "Feature", "properties": { }, "geometry": { "type": "Point", "coordinates": [ 9.20213851052, 45.4649894441 ] }, "bbox": [ 9.20213851052, 45.4649894441, 9.20213851052, 45.4649894441 ] } ], "bbox": [ 9.20213851052, 45.4649894441, 9.20213851052, 45.4649894441 ] } }, "geometry": { "type": "Point", "coordinates": [ 9.202138510519999, 45.464989444099999 ] } },
{ "type": "Feature", "properties": { "<RowID>": "Row539", "ANNOSCOL": 1415, "CODICE": 3014, "DENOMINAZIONE": "CONVITTO NAZIONALE LONGONE", "GRADO": "Scuola Secondaria", "TIPO": "Statale", "PARITARIA": "No", "INDIRIZZO": "Via DEGLI OLIVETANI 9", "CODVIA": 6220, "CIVICO": "9", "MUNICIPIO": 1, "ID_NIL": 7, "NIL": "MAGENTA - S. VITTORE", "LONG_X_4326": 9.1687784666199992, "LAT_Y_4326": 45.461837630799998, "Location": "(45.4618376308, 9.16877846662)", "GeoJSON": { "type": "FeatureCollection", "features": [ { "id": "0", "type": "Feature", "properties": { }, "geometry": { "type": "Point", "coordinates": [ 9.16877846662, 45.4618376308 ] }, "bbox": [ 9.16877846662, 45.4618376308, 9.16877846662, 45.4618376308 ] } ], "bbox": [ 9.16877846662, 45.4618376308, 9.16877846662, 45.4618376308 ] } }, "geometry": { "type": "Point", "coordinates": [ 9.168778466619999, 45.461837630799998 ] } },
{ "type": "Feature", "properties": { "<RowID>": "Row540", "ANNOSCOL": 1415, "CODICE": 3015, "DENOMINAZIONE": "BETLEM", "GRADO": "Scuola Secondaria", "TIPO": "Ente religioso", "PARITARIA": "SI", "INDIRIZZO": "Via NOVARA 540", "CODVIA": 6624, "CIVICO": "540", "MUNICIPIO": 7, "ID_NIL": 63, "NIL": "FIGINO", "LONG_X_4326": 9.0720423422999996, "LAT_Y_4326": 45.489636302299999, "Location": "(45.4896363023, 9.0720423423)", "GeoJSON": { "type": "FeatureCollection", "features": [ { "id": "0", "type": "Feature", "properties": { }, "geometry": { "type": "Point", "coordinates": [ 9.0720423423, 45.4896363023 ] }, "bbox": [ 9.0720423423, 45.4896363023, 9.0720423423, 45.4896363023 ] } ], "bbox": [ 9.0720423423, 45.4896363023, 9.0720423423, 45.4896363023 ] } }, "geometry": { "type": "Point", "coordinates": [ 9.0720423423, 45.489636302299999 ] } },
{ "type": "Feature", "properties": { "<RowID>": "Row541", "ANNOSCOL": 1415, "CODICE": 3016, "DENOMINAZIONE": "SUORE MARCELLINE", "GRADO": "Scuola Secondaria", "TIPO": "Ente religioso", "PARITARIA": "SI", "INDIRIZZO": "Via QUADRONNO 15", "CODVIA": 4021, "CIVICO": "15", "MUNICIPIO": 1, "ID_NIL": 5, "NIL": "PORTA VIGENTINA - PORTA LODOVICA", "LONG_X_4326": 9.1925495248699995, "LAT_Y_4326": 45.454320177299998, "Location": "(45.4543201773, 9.19254952487)", "GeoJSON": { "type": "FeatureCollection", "features": [ { "id": "0", "type": "Feature", "properties": { }, "geometry": { "type": "Point", "coordinates": [ 9.19254952487, 45.4543201773 ] }, "bbox": [ 9.19254952487, 45.4543201773, 9.19254952487, 45.4543201773 ] } ], "bbox": [ 9.19254952487, 45.4543201773, 9.19254952487, 45.4543201773 ] } }, "geometry": { "type": "Point", "coordinates": [ 9.19254952487, 45.454320177299998 ] } },
{ "type": "Feature", "properties": { "<RowID>": "Row542", "ANNOSCOL": 1415, "CODICE": 3020, "DENOMINAZIONE": "ISTITUTO VITTORIA COLONNA", "GRADO": "Scuola Secondaria", "TIPO": "Ente religioso", "PARITARIA": "SI", "INDIRIZZO": "Via CONSERVATORIO 4", "CODVIA": 3031, "CIVICO": "4", "MUNICIPIO": 1, "ID_NIL": 4, "NIL": "GUASTALLA", "LONG_X_4326": 9.2032715376199992, "LAT_Y_4326": 45.464284628900003, "Location": "(45.4642846289, 9.20327153762)", "GeoJSON": { "type": "FeatureCollection", "features": [ { "id": "0", "type": "Feature", "properties": { }, "geometry": { "type": "Point", "coordinates": [ 9.20327153762, 45.4642846289 ] }, "bbox": [ 9.20327153762, 45.4642846289, 9.20327153762, 45.4642846289 ] } ], "bbox": [ 9.20327153762, 45.4642846289, 9.20327153762, 45.4642846289 ] } }, "geometry": { "type": "Point", "coordinates": [ 9.203271537619999, 45.464284628900003 ] } },
{ "type": "Feature", "properties": { "<RowID>": "Row543", "ANNOSCOL": 1415, "CODICE": 3021, "DENOMINAZIONE": "MADRE CABRINI", "GRADO": "Scuola Secondaria", "TIPO": "Ente religioso", "PARITARIA": "SI", "INDIRIZZO": "Corso DI PORTA ROMANA 105", "CODVIA": 402, "CIVICO": "105", "MUNICIPIO": 1, "ID_NIL": 4, "NIL": "GUASTALLA", "LONG_X_4326": 9.1989240976800009, "LAT_Y_4326": 45.454276042399997, "Location": "(45.4542760424, 9.19892409768)", "GeoJSON": { "type": "FeatureCollection", "features": [ { "id": "0", "type": "Feature", "properties": { }, "geometry": { "type": "Point", "coordinates": [ 9.19892409768, 45.4542760424 ] }, "bbox": [ 9.19892409768, 45.4542760424, 9.19892409768, 45.4542760424 ] } ], "bbox": [ 9.19892409768, 45.4542760424, 9.19892409768, 45.4542760424 ] } }, "geometry": { "type": "Point", "coordinates": [ 9.198924097680001, 45.454276042399997 ] } },
{ "type": "Feature", "properties": { "<RowID>": "Row544", "ANNOSCOL": 1415, "CODICE": 3022, "DENOMINAZIONE": "MANZONI ALESSANDRO", "GRADO": "Scuola Secondaria", "TIPO": "Comunale", "PARITARIA": "SI", "INDIRIZZO": "Via GRAZIA DELEDDA 11", "CODVIA": 2306, "CIVICO": "11", "MUNICIPIO": 2, "ID_NIL": 20, "NIL": "LORETO - CASORETTO - NOLO", "LONG_X_4326": 9.2159393614699994, "LAT_Y_4326": 45.487660049799999, "Location": "(45.4876600498, 9.21593936147)", "GeoJSON": { "type": "FeatureCollection", "features": [ { "id": "0", "type": "Feature", "properties": { }, "geometry": { "type": "Point", "coordinates": [ 9.21593936147, 45.4876600498 ] }, "bbox": [ 9.21593936147, 45.4876600498, 9.21593936147, 45.4876600498 ] } ], "bbox": [ 9.21593936147, 45.4876600498, 9.21593936147, 45.4876600498 ] } }, "geometry": { "type": "Point", "coordinates": [ 9.215939361469999, 45.487660049799999 ] } },
{ "type": "Feature", "properties": { "<RowID>": "Row545", "ANNOSCOL": 1415, "CODICE": 3023, "DENOMINAZIONE": "SUORE ORSOLINE DI SAN CARLO", "GRADO": "Scuola Secondaria", "TIPO": "Ente religioso", "PARITARIA": "SI", "INDIRIZZO": "Via LANZONE 53", "CODVIA": 554, "CIVICO": "53", "MUNICIPIO": 1, "ID_NIL": 1, "NIL": "DUOMO", "LONG_X_4326": 9.1745765015800007, "LAT_Y_4326": 45.461511296300003, "Location": "(45.4615112963, 9.17457650158)", "GeoJSON": { "type": "FeatureCollection", "features": [ { "id": "0", "type": "Feature", "properties": { }, "geometry": { "type": "Point", "coordinates": [ 9.17457650158, 45.4615112963 ] }, "bbox": [ 9.17457650158, 45.4615112963, 9.17457650158, 45.4615112963 ] } ], "bbox": [ 9.17457650158, 45.4615112963, 9.17457650158, 45.4615112963 ] } }, "geometry": { "type": "Point", "coordinates": [ 9.174576501580001, 45.461511296300003 ] } },
{ "type": "Feature", "properties": { "<RowID>": "Row546", "ANNOSCOL": 1415, "CODICE": 3024, "DENOMINAZIONE": "COLLEGIO SAN CARLO", "GRADO": "Scuola Secondaria", "TIPO": "Ente religioso", "PARITARIA": "SI", "INDIRIZZO": "Corso MAGENTA 71", "CODVIA": 604, "CIVICO": "71", "MUNICIPIO": 1, "ID_NIL": 7, "NIL": "MAGENTA - S. VITTORE", "LONG_X_4326": 9.1697722979700007, "LAT_Y_4326": 45.4655815315, "Location": "(45.4655815315, 9.16977229797)", "GeoJSON": { "type": "FeatureCollection", "features": [ { "id": "0", "type": "Feature", "properties": { }, "geometry": { "type": "Point", "coordinates": [ 9.16977229797, 45.4655815315 ] }, "bbox": [ 9.16977229797, 45.4655815315, 9.16977229797, 45.4655815315 ] } ], "bbox": [ 9.16977229797, 45.4655815315, 9.16977229797, 45.4655815315 ] } }, "geometry": { "type": "Point", "coordinates": [ 9.169772297970001, 45.4655815315 ] } },
{ "type": "Feature", "properties": { "<RowID>": "Row547", "ANNOSCOL": 1415, "CODICE": 3026, "DENOMINAZIONE": "ISTITUTO ZACCARIA", "GRADO": "Scuola Secondaria", "TIPO": "Ente religioso", "PARITARIA": "SI", "INDIRIZZO": "Via DELLA COMMENDA 5", "CODVIA": 3146, "CIVICO": "5", "MUNICIPIO": 1, "ID_NIL": 4, "NIL": "GUASTALLA", "LONG_X_4326": 9.1988609820500002, "LAT_Y_4326": 45.459176856299997, "Location": "(45.4591768563, 9.19886098205)", "GeoJSON": { "type": "FeatureCollection", "features": [ { "id": "0", "type": "Feature", "properties": { }, "geometry": { "type": "Point", "coordinates": [ 9.19886098205, 45.4591768563 ] }, "bbox": [ 9.19886098205, 45.4591768563, 9.19886098205, 45.4591768563 ] } ], "bbox": [ 9.19886098205, 45.4591768563, 9.19886098205, 45.4591768563 ] } }, "geometry": { "type": "Point", "coordinates": [ 9.19886098205, 45.459176856299997 ] } },
{ "type": "Feature", "properties": { "<RowID>": "Row548", "ANNOSCOL": 1415, "CODICE": 3027, "DENOMINAZIONE": "EDMONDO DE AMICIS", "GRADO": "Scuola Secondaria", "TIPO": "Ente privato laico", "PARITARIA": "SI", "INDIRIZZO": "Via ALFONSO LAMARMORA 34", "CODVIA": 4103, "CIVICO": "34", "MUNICIPIO": 1, "ID_NIL": 4, "NIL": "GUASTALLA", "LONG_X_4326": 9.2016452384100003, "LAT_Y_4326": 45.456841482900003, "Location": "(45.4568414829, 9.20164523841)", "GeoJSON": { "type": "FeatureCollection", "features": [ { "id": "0", "type": "Feature", "properties": { }, "geometry": { "type": "Point", "coordinates": [ 9.20164523841, 45.4568414829 ] }, "bbox": [ 9.20164523841, 45.4568414829, 9.20164523841, 45.4568414829 ] } ], "bbox": [ 9.20164523841, 45.4568414829, 9.20164523841, 45.4568414829 ] } }, "geometry": { "type": "Point", "coordinates": [ 9.20164523841, 45.456841482900003 ] } },
{ "type": "Feature", "properties": { "<RowID>": "Row549", "ANNOSCOL": 1415, "CODICE": 3028, "DENOMINAZIONE": "ISTITUTO GIACOMO LEOPARDI", "GRADO": "Scuola Secondaria", "TIPO": "Ente privato laico", "PARITARIA": "SI", "INDIRIZZO": "Via ARENA 13", "CODVIA": 5182, "CIVICO": "13", "MUNICIPIO": 1, "ID_NIL": 6, "NIL": "PORTA TICINESE - CONCA DEL NAVIGLIO", "LONG_X_4326": 9.17935340899, "LAT_Y_4326": 45.455871576900002, "Location": "(45.4558715769, 9.17935340899)", "GeoJSON": { "type": "FeatureCollection", "features": [ { "id": "0", "type": "Feature", "properties": { }, "geometry": { "type": "Point", "coordinates": [ 9.17935340899, 45.4558715769 ] }, "bbox": [ 9.17935340899, 45.4558715769, 9.17935340899, 45.4558715769 ] } ], "bbox": [ 9.17935340899, 45.4558715769, 9.17935340899, 45.4558715769 ] } }, "geometry": { "type": "Point", "coordinates": [ 9.17935340899, 45.455871576900002 ] } },
{ "type": "Feature", "properties": { "<RowID>": "Row550", "ANNOSCOL": 1415, "CODICE": 3029, "DENOMINAZIONE": "SUORE MARCELLINE", "GRADO": "Scuola Secondaria", "TIPO": "Ente religioso", "PARITARIA": "SI", "INDIRIZZO": "Piazza NICCOLO' TOMMASEO 1", "CODVIA": 6175, "CIVICO": "1", "MUNICIPIO": 1, "ID_NIL": 7, "NIL": "MAGENTA - S. VITTORE", "LONG_X_4326": 9.1672377678700006, "LAT_Y_4326": 45.469577636899999, "Location": "(45.4695776369, 9.16723776787)", "GeoJSON": { "type": "FeatureCollection", "features": [ { "id": "0", "type": "Feature", "properties": { }, "geometry": { "type": "Point", "coordinates": [ 9.16723776787, 45.4695776369 ] }, "bbox": [ 9.16723776787, 45.4695776369, 9.16723776787, 45.4695776369 ] } ], "bbox": [ 9.16723776787, 45.4695776369, 9.16723776787, 45.4695776369 ] } }, "geometry": { "type": "Point", "coordinates": [ 9.167237767870001, 45.469577636899999 ] } },
{ "type": "Feature", "properties": { "<RowID>": "Row551", "ANNOSCOL": 1415, "CODICE": 3030, "DENOMINAZIONE": "ROSA GOVONE", "GRADO": "Scuola Secondaria", "TIPO": "Statale", "PARITARIA": "No", "INDIRIZZO": "Via GUGLIELMO PEPE 40", "CODVIA": 1126, "CIVICO": "40", "MUNICIPIO": 9, "ID_NIL": 9, "NIL": "PORTA GARIBALDI - PORTA NUOVA", "LONG_X_4326": 9.1836325733693815, "LAT_Y_4326": 45.487423156150847, "Location": "(45.48742315615085, 9.183632573369382)", "GeoJSON": { "type": "FeatureCollection", "features": [ { "id": "0", "type": "Feature", "properties": { }, "geometry": { "type": "Point", "coordinates": [ 9.183632573369382, 45.48742315615085 ] }, "bbox": [ 9.183632573369382, 45.48742315615085, 9.183632573369382, 45.48742315615085 ] } ], "bbox": [ 9.183632573369382, 45.48742315615085, 9.183632573369382, 45.48742315615085 ] } }, "geometry": { "type": "Point", "coordinates": [ 9.183632573369382, 45.487423156150847 ] } },
{ "type": "Feature", "properties": { "<RowID>": "Row552", "ANNOSCOL": 1415, "CODICE": 3031, "DENOMINAZIONE": "SALVATORE QUASIMODO", "GRADO": "Scuola Secondaria", "TIPO": "Statale", "PARITARIA": "No", "INDIRIZZO": "Via DELLA GIUSTIZIA 6", "CODVIA": 1410, "CIVICO": "6", "MUNICIPIO": 2, "ID_NIL": 13, "NIL": "GRECO - SEGNANO", "LONG_X_4326": 9.2072347788899993, "LAT_Y_4326": 45.498720135100001, "Location": "(45.4987201351, 9.20723477889)", "GeoJSON": { "type": "FeatureCollection", "features": [ { "id": "0", "type": "Feature", "properties": { }, "geometry": { "type": "Point", "coordinates": [ 9.20723477889, 45.4987201351 ] }, "bbox": [ 9.20723477889, 45.4987201351, 9.20723477889, 45.4987201351 ] } ], "bbox": [ 9.20723477889, 45.4987201351, 9.20723477889, 45.4987201351 ] } }, "geometry": { "type": "Point", "coordinates": [ 9.207234778889999, 45.498720135100001 ] } },
{ "type": "Feature", "properties": { "<RowID>": "Row553", "ANNOSCOL": 1415, "CODICE": 3032, "DENOMINAZIONE": "NICOLO' TOMMASEO", "GRADO": "Scuola Secondaria", "TIPO": "Statale", "PARITARIA": "No", "INDIRIZZO": "Piazzale ISTRIA 11", "CODVIA": 1347, "CIVICO": "11", "MUNICIPIO": 9, "ID_NIL": 12, "NIL": "MACIACHINI - MAGGIOLINA", "LONG_X_4326": 9.1972582187, "LAT_Y_4326": 45.502178996600001, "Location": "(45.5021789966, 9.1972582187)", "GeoJSON": { "type": "FeatureCollection", "features": [ { "id": "0", "type": "Feature", "properties": { }, "geometry": { "type": "Point", "coordinates": [ 9.1972582187, 45.5021789966 ] }, "bbox": [ 9.1972582187, 45.5021789966, 9.1972582187, 45.5021789966 ] } ], "bbox": [ 9.1972582187, 45.5021789966, 9.1972582187, 45.5021789966 ] } }, "geometry": { "type": "Point", "coordinates": [ 9.1972582187, 45.502178996600001 ] } },
{ "type": "Feature", "properties": { "<RowID>": "Row554", "ANNOSCOL": 1415, "CODICE": 3033, "DENOMINAZIONE": "Fara Gustavo", "GRADO": "Scuola Secondaria", "TIPO": "Statale", "PARITARIA": "No", "INDIRIZZO": "Via GUSTAVO FARA 32", "CODVIA": 1183, "CIVICO": "32", "MUNICIPIO": 2, "ID_NIL": 10, "NIL": "STAZIONE CENTRALE - PONTE SEVESO", "LONG_X_4326": 9.1991030142400003, "LAT_Y_4326": 45.4855373125, "Location": "(45.4855373125, 9.19910301424)", "GeoJSON": { "type": "FeatureCollection", "features": [ { "id": "0", "type": "Feature", "properties": { }, "geometry": { "type": "Point", "coordinates": [ 9.19910301424, 45.4855373125 ] }, "bbox": [ 9.19910301424, 45.4855373125, 9.19910301424, 45.4855373125 ] } ], "bbox": [ 9.19910301424, 45.4855373125, 9.19910301424, 45.4855373125 ] } }, "geometry": { "type": "Point", "coordinates": [ 9.19910301424, 45.4855373125 ] } },
{ "type": "Feature", "properties": { "<RowID>": "Row555", "ANNOSCOL": 1415, "CODICE": 3034, "DENOMINAZIONE": "ROBERTO FRANCESCHI", "GRADO": "Scuola Secondaria", "TIPO": "Statale", "PARITARIA": "No", "INDIRIZZO": "Via GIOVANNI CAGLIERO 20", "CODVIA": 1407, "CIVICO": "20", "MUNICIPIO": 2, "ID_NIL": 12, "NIL": "MACIACHINI - MAGGIOLINA", "LONG_X_4326": 9.2012206218399992, "LAT_Y_4326": 45.4965756072, "Location": "(45.4965756072, 9.20122062184)", "GeoJSON": { "type": "FeatureCollection", "features": [ { "id": "0", "type": "Feature", "properties": { }, "geometry": { "type": "Point", "coordinates": [ 9.20122062184, 45.4965756072 ] }, "bbox": [ 9.20122062184, 45.4965756072, 9.20122062184, 45.4965756072 ] } ], "bbox": [ 9.20122062184, 45.4965756072, 9.20122062184, 45.4965756072 ] } }, "geometry": { "type": "Point", "coordinates": [ 9.201220621839999, 45.4965756072 ] } },
{ "type": "Feature", "properties": { "<RowID>": "Row556", "ANNOSCOL": 1415, "CODICE": 3036, "DENOMINAZIONE": "MARIA CONSOLATRICE", "GRADO": "Scuola Secondaria", "TIPO": "Ente religioso", "PARITARIA": "SI", "INDIRIZZO": "Via MELCHIORRE GIOIA 51", "CODVIA": 1108, "CIVICO": "51", "MUNICIPIO": 2, "ID_NIL": 11, "NIL": "ISOLA", "LONG_X_4326": 9.1984207267099993, "LAT_Y_4326": 45.487614167499999, "Location": "(45.4876141675, 9.19842072671)", "GeoJSON": { "type": "FeatureCollection", "features": [ { "id": "0", "type": "Feature", "properties": { }, "geometry": { "type": "Point", "coordinates": [ 9.19842072671, 45.4876141675 ] }, "bbox": [ 9.19842072671, 45.4876141675, 9.19842072671, 45.4876141675 ] } ], "bbox": [ 9.19842072671, 45.4876141675, 9.19842072671, 45.4876141675 ] } }, "geometry": { "type": "Point", "coordinates": [ 9.198420726709999, 45.487614167499999 ] } },
{ "type": "Feature", "properties": { "<RowID>": "Row557", "ANNOSCOL": 1415, "CODICE": 3038, "DENOMINAZIONE": "ISTITUTO SANT'AMBROGIO SALESIANO", "GRADO": "Scuola Secondaria", "TIPO": "Ente religioso", "PARITARIA": "SI", "INDIRIZZO": "Via COPERNICO 9", "CODVIA": 1204, "CIVICO": "9", "MUNICIPIO": 2, "ID_NIL": 10, "NIL": "STAZIONE CENTRALE - PONTE SEVESO", "LONG_X_4326": 9.2011189073999997, "LAT_Y_4326": 45.4880626689, "Location": "(45.4880626689, 9.2011189074)", "GeoJSON": { "type": "FeatureCollection", "features": [ { "id": "0", "type": "Feature", "properties": { }, "geometry": { "type": "Point", "coordinates": [ 9.2011189074, 45.4880626689 ] }, "bbox": [ 9.2011189074, 45.4880626689, 9.2011189074, 45.4880626689 ] } ], "bbox": [ 9.2011189074, 45.4880626689, 9.2011189074, 45.4880626689 ] } }, "geometry": { "type": "Point", "coordinates": [ 9.2011189074, 45.4880626689 ] } },
{ "type": "Feature", "properties": { "<RowID>": "Row558", "ANNOSCOL": 1415, "CODICE": 3040, "DENOMINAZIONE": "FAES ARGONNE - SCUOLA SECONDARIA I GRADO MASCHILE", "GRADO": "Scuola Secondaria", "TIPO": "Ente privato laico", "PARITARIA": "SI", "INDIRIZZO": "Via GIOVANNI ANTONIO AMADEO 11", "CODVIA": 3228, "CIVICO": "11", "MUNICIPIO": 3, "ID_NIL": 22, "NIL": "CITTA' STUDI", "LONG_X_4326": 9.2317022030599993, "LAT_Y_4326": 45.471077214399998, "Location": "(45.4710772144, 9.23170220306)", "GeoJSON": { "type": "FeatureCollection", "features": [ { "id": "0", "type": "Feature", "properties": { }, "geometry": { "type": "Point", "coordinates": [ 9.23170220306, 45.4710772144 ] }, "bbox": [ 9.23170220306, 45.4710772144, 9.23170220306, 45.4710772144 ] } ], "bbox": [ 9.23170220306, 45.4710772144, 9.23170220306, 45.4710772144 ] } }, "geometry": { "type": "Point", "coordinates": [ 9.231702203059999, 45.471077214399998 ] } },
{ "type": "Feature", "properties": { "<RowID>": "Row559", "ANNOSCOL": 1415, "CODICE": 3042, "DENOMINAZIONE": "LOCATELLI - ORIANI", "GRADO": "Scuola Secondaria", "TIPO": "Statale", "PARITARIA": "No", "INDIRIZZO": "Via CARLO PISACANE 13", "CODVIA": 2188, "CIVICO": "13", "MUNICIPIO": 3, "ID_NIL": 21, "NIL": "BUENOS AIRES - PORTA VENEZIA - PORTA MONFORTE", "LONG_X_4326": 9.2109979401899995, "LAT_Y_4326": 45.470327681999997, "Location": "(45.470327682, 9.21099794019)", "GeoJSON": { "type": "FeatureCollection", "features": [ { "id": "0", "type": "Feature", "properties": { }, "geometry": { "type": "Point", "coordinates": [ 9.21099794019, 45.470327682 ] }, "bbox": [ 9.21099794019, 45.470327682, 9.21099794019, 45.470327682 ] } ], "bbox": [ 9.21099794019, 45.470327682, 9.21099794019, 45.470327682 ] } }, "geometry": { "type": "Point", "coordinates": [ 9.21099794019, 45.470327682 ] } },
{ "type": "Feature", "properties": { "<RowID>": "Row560", "ANNOSCOL": 1415, "CODICE": 3044, "DENOMINAZIONE": "SANTA CATERINA DA SIENA", "GRADO": "Scuola Secondaria", "TIPO": "Statale", "PARITARIA": "No", "INDIRIZZO": "Via CLAUDIO MONTEVERDI 6", "CODVIA": 2237, "CIVICO": "6", "MUNICIPIO": 3, "ID_NIL": 21, "NIL": "BUENOS AIRES - PORTA VENEZIA - PORTA MONFORTE", "LONG_X_4326": 9.2149885809800001, "LAT_Y_4326": 45.481788027699999, "Location": "(45.4817880277, 9.21498858098)", "GeoJSON": { "type": "FeatureCollection", "features": [ { "id": "0", "type": "Feature", "properties": { }, "geometry": { "type": "Point", "coordinates": [ 9.21498858098, 45.4817880277 ] }, "bbox": [ 9.21498858098, 45.4817880277, 9.21498858098, 45.4817880277 ] } ], "bbox": [ 9.21498858098, 45.4817880277, 9.21498858098, 45.4817880277 ] } }, "geometry": { "type": "Point", "coordinates": [ 9.21498858098, 45.481788027699999 ] } },
{ "type": "Feature", "properties": { "<RowID>": "Row561", "ANNOSCOL": 1415, "CODICE": 3045, "DENOMINAZIONE": "GIAN BATTISTA TIEPOLO", "GRADO": "Scuola Secondaria", "TIPO": "Statale", "PARITARIA": "No", "INDIRIZZO": "Piazza ISAIA GRAZIADIO ASCOLI 2", "CODVIA": 3176, "CIVICO": "2", "MUNICIPIO": 3, "ID_NIL": 21, "NIL": "BUENOS AIRES - PORTA VENEZIA - PORTA MONFORTE", "LONG_X_4326": 9.2174840244799991, "LAT_Y_4326": 45.472888326000003, "Location": "(45.472888326, 9.21748402448)", "GeoJSON": { "type": "FeatureCollection", "features": [ { "id": "0", "type": "Feature", "properties": { }, "geometry": { "type": "Point", "coordinates": [ 9.21748402448, 45.472888326 ] }, "bbox": [ 9.21748402448, 45.472888326, 9.21748402448, 45.472888326 ] } ], "bbox": [ 9.21748402448, 45.472888326, 9.21748402448, 45.472888326 ] } }, "geometry": { "type": "Point", "coordinates": [ 9.217484024479999, 45.472888326 ] } },
{ "type": "Feature", "properties": { "<RowID>": "Row562", "ANNOSCOL": 1415, "CODICE": 3046, "DENOMINAZIONE": "San Gregorio", "GRADO": "Scuola Secondaria", "TIPO": "Statale", "PARITARIA": "No", "INDIRIZZO": "Via SAN GREGORIO 5", "CODVIA": 2123, "CIVICO": "5", "MUNICIPIO": 3, "ID_NIL": 21, "NIL": "BUENOS AIRES - PORTA VENEZIA - PORTA MONFORTE", "LONG_X_4326": 9.2071103496499997, "LAT_Y_4326": 45.478153266699998, "Location": "(45.4781532667, 9.20711034965)", "GeoJSON": { "type": "FeatureCollection", "features": [ { "id": "0", "type": "Feature", "properties": { }, "geometry": { "type": "Point", "coordinates": [ 9.20711034965, 45.4781532667 ] }, "bbox": [ 9.20711034965, 45.4781532667, 9.20711034965, 45.4781532667 ] } ], "bbox": [ 9.20711034965, 45.4781532667, 9.20711034965, 45.4781532667 ] } }, "geometry": { "type": "Point", "coordinates": [ 9.20711034965, 45.478153266699998 ] } },
{ "type": "Feature", "properties": { "<RowID>": "Row563", "ANNOSCOL": 1415, "CODICE": 3048, "DENOMINAZIONE": "ISTITUTO GONZAGA", "GRADO": "Scuola Secondaria", "TIPO": "Ente religioso", "PARITARIA": "SI", "INDIRIZZO": "Via VITRUVIO 41", "CODVIA": 2134, "CIVICO": "41", "MUNICIPIO": 2, "ID_NIL": 10, "NIL": "STAZIONE CENTRALE - PONTE SEVESO", "LONG_X_4326": 9.2060447159500001, "LAT_Y_4326": 45.482587103299998, "Location": "(45.4825871033, 9.20604471595)", "GeoJSON": { "type": "FeatureCollection", "features": [ { "id": "0", "type": "Feature", "properties": { }, "geometry": { "type": "Point", "coordinates": [ 9.20604471595, 45.4825871033 ] }, "bbox": [ 9.20604471595, 45.4825871033, 9.20604471595, 45.4825871033 ] } ], "bbox": [ 9.20604471595, 45.4825871033, 9.20604471595, 45.4825871033 ] } }, "geometry": { "type": "Point", "coordinates": [ 9.20604471595, 45.482587103299998 ] } },
{ "type": "Feature", "properties": { "<RowID>": "Row564", "ANNOSCOL": 1415, "CODICE": 3051, "DENOMINAZIONE": "CARMELITA MANARA", "GRADO": "Scuola Secondaria", "TIPO": "Statale", "PARITARIA": "No", "INDIRIZZO": "Via BEZZECCA 18", "CODVIA": 3075, "CIVICO": "18", "MUNICIPIO": 4, "ID_NIL": 26, "NIL": "XXII MARZO", "LONG_X_4326": 9.2132806958700009, "LAT_Y_4326": 45.460612446399999, "Location": "(45.4606124464, 9.21328069587)", "GeoJSON": { "type": "FeatureCollection", "features": [ { "id": "0", "type": "Feature", "properties": { }, "geometry": { "type": "Point", "coordinates": [ 9.21328069587, 45.4606124464 ] }, "bbox": [ 9.21328069587, 45.4606124464, 9.21328069587, 45.4606124464 ] } ], "bbox": [ 9.21328069587, 45.4606124464, 9.21328069587, 45.4606124464 ] } }, "geometry": { "type": "Point", "coordinates": [ 9.213280695870001, 45.460612446399999 ] } },
{ "type": "Feature", "properties": { "<RowID>": "Row565", "ANNOSCOL": 1415, "CODICE": 3052, "DENOMINAZIONE": "TITO LIVIO", "GRADO": "Scuola Secondaria", "TIPO": "Statale", "PARITARIA": "No", "INDIRIZZO": "Via MONTE VELINO 2", "CODVIA": 3338, "CIVICO": "2", "MUNICIPIO": 4, "ID_NIL": 29, "NIL": "ORTOMERCATO", "LONG_X_4326": 9.2245095093600007, "LAT_Y_4326": 45.452866970199999, "Location": "(45.4528669702, 9.22450950936)", "GeoJSON": { "type": "FeatureCollection", "features": [ { "id": "0", "type": "Feature", "properties": { }, "geometry": { "type": "Point", "coordinates": [ 9.22450950936, 45.4528669702 ] }, "bbox": [ 9.22450950936, 45.4528669702, 9.22450950936, 45.4528669702 ] } ], "bbox": [ 9.22450950936, 45.4528669702, 9.22450950936, 45.4528669702 ] } }, "geometry": { "type": "Point", "coordinates": [ 9.224509509360001, 45.452866970199999 ] } },
{ "type": "Feature", "properties": { "<RowID>": "Row566", "ANNOSCOL": 1415, "CODICE": 3053, "DENOMINAZIONE": "MARIA AUSILIATRICE", "GRADO": "Scuola Secondaria", "TIPO": "Ente religioso", "PARITARIA": "SI", "INDIRIZZO": "Via BONVESIN DE LA RIVA 12", "CODVIA": 3087, "CIVICO": "12", "MUNICIPIO": 4, "ID_NIL": 26, "NIL": "XXII MARZO", "LONG_X_4326": 9.2121639776799995, "LAT_Y_4326": 45.4636771379, "Location": "(45.4636771379, 9.21216397768)", "GeoJSON": { "type": "FeatureCollection", "features": [ { "id": "0", "type": "Feature", "properties": { }, "geometry": { "type": "Point", "coordinates": [ 9.21216397768, 45.4636771379 ] }, "bbox": [ 9.21216397768, 45.4636771379, 9.21216397768, 45.4636771379 ] } ], "bbox": [ 9.21216397768, 45.4636771379, 9.21216397768, 45.4636771379 ] } }, "geometry": { "type": "Point", "coordinates": [ 9.21216397768, 45.4636771379 ] } },
{ "type": "Feature", "properties": { "<RowID>": "Row567", "ANNOSCOL": 1415, "CODICE": 3054, "DENOMINAZIONE": "SUORE MANTELLATE", "GRADO": "Scuola Secondaria", "TIPO": "Ente religioso", "PARITARIA": "SI", "INDIRIZZO": "Via GIORGIO VASARI 16", "CODVIA": 4070, "CIVICO": "16", "MUNICIPIO": 4, "ID_NIL": 27, "NIL": "PTA ROMANA", "LONG_X_4326": 9.2071967913311337, "LAT_Y_4326": 45.453778215041531, "Location": "(45.45377821504153, 9.207196791331134)", "GeoJSON": { "type": "FeatureCollection", "features": [ { "id": "0", "type": "Feature", "properties": { }, "geometry": { "type": "Point", "coordinates": [ 9.207196791331134, 45.45377821504153 ] }, "bbox": [ 9.207196791331134, 45.45377821504153, 9.207196791331134, 45.45377821504153 ] } ], "bbox": [ 9.207196791331134, 45.45377821504153, 9.207196791331134, 45.45377821504153 ] } }, "geometry": { "type": "Point", "coordinates": [ 9.207196791331134, 45.453778215041531 ] } },
{ "type": "Feature", "properties": { "<RowID>": "Row568", "ANNOSCOL": 1415, "CODICE": 3055, "DENOMINAZIONE": "SAN TOMMASO MORO", "GRADO": "Scuola Secondaria", "TIPO": "Ente religioso", "PARITARIA": "SI", "INDIRIZZO": "Via ANGELO INGANNI 12", "CODVIA": 6672, "CIVICO": "12", "MUNICIPIO": 6, "ID_NIL": 53, "NIL": "LORENTEGGIO", "LONG_X_4326": 9.1277698753299994, "LAT_Y_4326": 45.447698077299997, "Location": "(45.4476980773, 9.12776987533)", "GeoJSON": { "type": "FeatureCollection", "features": [ { "id": "0", "type": "Feature", "properties": { }, "geometry": { "type": "Point", "coordinates": [ 9.12776987533, 45.4476980773 ] }, "bbox": [ 9.12776987533, 45.4476980773, 9.12776987533, 45.4476980773 ] } ], "bbox": [ 9.12776987533, 45.4476980773, 9.12776987533, 45.4476980773 ] } }, "geometry": { "type": "Point", "coordinates": [ 9.127769875329999, 45.447698077299997 ] } },
{ "type": "Feature", "properties": { "<RowID>": "Row569", "ANNOSCOL": 1415, "CODICE": 3056, "DENOMINAZIONE": "FEDERICO CONFALONIERI", "GRADO": "Scuola Secondaria", "TIPO": "Statale", "PARITARIA": "No", "INDIRIZZO": "Via CARLO VITTADINI 10", "CODVIA": 4055, "CIVICO": "10", "MUNICIPIO": 5, "ID_NIL": 5, "NIL": "PORTA VIGENTINA - PORTA LODOVICA", "LONG_X_4326": 9.1939682782100007, "LAT_Y_4326": 45.449343857000002, "Location": "(45.449343857, 9.19396827821)", "GeoJSON": { "type": "FeatureCollection", "features": [ { "id": "0", "type": "Feature", "properties": { }, "geometry": { "type": "Point", "coordinates": [ 9.19396827821, 45.449343857 ] }, "bbox": [ 9.19396827821, 45.449343857, 9.19396827821, 45.449343857 ] } ], "bbox": [ 9.19396827821, 45.449343857, 9.19396827821, 45.449343857 ] } }, "geometry": { "type": "Point", "coordinates": [ 9.193968278210001, 45.449343857 ] } },
{ "type": "Feature", "properties": { "<RowID>": "Row570", "ANNOSCOL": 1415, "CODICE": 3057, "DENOMINAZIONE": "CARLO PORTA", "GRADO": "Scuola Secondaria", "TIPO": "Statale", "PARITARIA": "No", "INDIRIZZO": "Via MOISE' LORIA 37", "CODVIA": 6100, "CIVICO": "37", "MUNICIPIO": 7, "ID_NIL": 51, "NIL": "PORTA MAGENTA", "LONG_X_4326": 9.1584182395599996, "LAT_Y_4326": 45.457845458599998, "Location": "(45.4578454586, 9.15841823956)", "GeoJSON": { "type": "FeatureCollection", "features": [ { "id": "0", "type": "Feature", "properties": { }, "geometry": { "type": "Point", "coordinates": [ 9.15841823956, 45.4578454586 ] }, "bbox": [ 9.15841823956, 45.4578454586, 9.15841823956, 45.4578454586 ] } ], "bbox": [ 9.15841823956, 45.4578454586, 9.15841823956, 45.4578454586 ] } }, "geometry": { "type": "Point", "coordinates": [ 9.15841823956, 45.457845458599998 ] } },
{ "type": "Feature", "properties": { "<RowID>": "Row571", "ANNOSCOL": 1415, "CODICE": 3058, "DENOMINAZIONE": "Tabacchi", "GRADO": "Scuola Secondaria", "TIPO": "Statale", "PARITARIA": "No", "INDIRIZZO": "Via ODOARDO TABACCHI 15", "CODVIA": 5223, "CIVICO": "15", "MUNICIPIO": 5, "ID_NIL": 6, "NIL": "PORTA TICINESE - CONCA DEL NAVIGLIO", "LONG_X_4326": 9.1815272116000006, "LAT_Y_4326": 45.4476842937, "Location": "(45.4476842937, 9.1815272116)", "GeoJSON": { "type": "FeatureCollection", "features": [ { "id": "0", "type": "Feature", "properties": { }, "geometry": { "type": "Point", "coordinates": [ 9.1815272116, 45.4476842937 ] }, "bbox": [ 9.1815272116, 45.4476842937, 9.1815272116, 45.4476842937 ] } ], "bbox": [ 9.1815272116, 45.4476842937, 9.1815272116, 45.4476842937 ] } }, "geometry": { "type": "Point", "coordinates": [ 9.181527211600001, 45.4476842937 ] } },
{ "type": "Feature", "properties": { "<RowID>": "Row572", "ANNOSCOL": 1415, "CODICE": 3059, "DENOMINAZIONE": "CLAUDIO MONTEVERDI", "GRADO": "Scuola Secondaria", "TIPO": "Statale", "PARITARIA": "No", "INDIRIZZO": "Via VITTORIA COLONNA 42", "CODVIA": 6284, "CIVICO": "42", "MUNICIPIO": 7, "ID_NIL": 58, "NIL": "DE ANGELI - MONTE ROSA", "LONG_X_4326": 9.1499820367600009, "LAT_Y_4326": 45.468299788400003, "Location": "(45.4682997884, 9.14998203676)", "GeoJSON": { "type": "FeatureCollection", "features": [ { "id": "0", "type": "Feature", "properties": { }, "geometry": { "type": "Point", "coordinates": [ 9.14998203676, 45.4682997884 ] }, "bbox": [ 9.14998203676, 45.4682997884, 9.14998203676, 45.4682997884 ] } ], "bbox": [ 9.14998203676, 45.4682997884, 9.14998203676, 45.4682997884 ] } }, "geometry": { "type": "Point", "coordinates": [ 9.149982036760001, 45.468299788400003 ] } },
{ "type": "Feature", "properties": { "<RowID>": "Row573", "ANNOSCOL": 1415, "CODICE": 3060, "DENOMINAZIONE": "LEONE TOLSTOJ", "GRADO": "Scuola Secondaria", "TIPO": "Statale", "PARITARIA": "No", "INDIRIZZO": "Via ZUARA 7", "CODVIA": 6126, "CIVICO": "7", "MUNICIPIO": 6, "ID_NIL": 52, "NIL": "BANDE NERE", "LONG_X_4326": 9.1499729700699994, "LAT_Y_4326": 45.456870933399998, "Location": "(45.4568709334, 9.14997297007)", "GeoJSON": { "type": "FeatureCollection", "features": [ { "id": "0", "type": "Feature", "properties": { }, "geometry": { "type": "Point", "coordinates": [ 9.14997297007, 45.4568709334 ] }, "bbox": [ 9.14997297007, 45.4568709334, 9.14997297007, 45.4568709334 ] } ], "bbox": [ 9.14997297007, 45.4568709334, 9.14997297007, 45.4568709334 ] } }, "geometry": { "type": "Point", "coordinates": [ 9.149972970069999, 45.456870933399998 ] } },
{ "type": "Feature", "properties": { "<RowID>": "Row574", "ANNOSCOL": 1415, "CODICE": 3061, "DENOMINAZIONE": "Secondaria Moscati Mameli", "GRADO": "Scuola Secondaria", "TIPO": "Statale", "PARITARIA": "No", "INDIRIZZO": "Via MONVISO 2", "CODVIA": 7212, "CIVICO": "2", "MUNICIPIO": 8, "ID_NIL": 69, "NIL": "SARPI", "LONG_X_4326": 9.1680152669300004, "LAT_Y_4326": 45.4843020259, "Location": "(45.4843020259, 9.16801526693)", "GeoJSON": { "type": "FeatureCollection", "features": [ { "id": "0", "type": "Feature", "properties": { }, "geometry": { "type": "Point", "coordinates": [ 9.16801526693, 45.4843020259 ] }, "bbox": [ 9.16801526693, 45.4843020259, 9.16801526693, 45.4843020259 ] } ], "bbox": [ 9.16801526693, 45.4843020259, 9.16801526693, 45.4843020259 ] } }, "geometry": { "type": "Point", "coordinates": [ 9.16801526693, 45.4843020259 ] } },
{ "type": "Feature", "properties": { "<RowID>": "Row575", "ANNOSCOL": 1415, "CODICE": 3062, "DENOMINAZIONE": "MOSCATI - MAMELI", "GRADO": "Scuola Secondaria", "TIPO": "Statale", "PARITARIA": "No", "INDIRIZZO": "Via CARLO LINNEO 2", "CODVIA": 6141, "CIVICO": "2", "MUNICIPIO": 8, "ID_NIL": 68, "NIL": "PAGANO", "LONG_X_4326": 9.1636673356199996, "LAT_Y_4326": 45.477926804200003, "Location": "(45.4779268042, 9.16366733562)", "GeoJSON": { "type": "FeatureCollection", "features": [ { "id": "0", "type": "Feature", "properties": { }, "geometry": { "type": "Point", "coordinates": [ 9.16366733562, 45.4779268042 ] }, "bbox": [ 9.16366733562, 45.4779268042, 9.16366733562, 45.4779268042 ] } ], "bbox": [ 9.16366733562, 45.4779268042, 9.16366733562, 45.4779268042 ] } }, "geometry": { "type": "Point", "coordinates": [ 9.16366733562, 45.477926804200003 ] } },
{ "type": "Feature", "properties": { "<RowID>": "Row576", "ANNOSCOL": 1415, "CODICE": 3063, "DENOMINAZIONE": "ACHILLE MAURI", "GRADO": "Scuola Secondaria", "TIPO": "Statale", "PARITARIA": "No", "INDIRIZZO": "Via ANGELO MAURI 10", "CODVIA": 6296, "CIVICO": "10", "MUNICIPIO": 7, "ID_NIL": 51, "NIL": "PORTA MAGENTA", "LONG_X_4326": 9.1609177703999993, "LAT_Y_4326": 45.465560610300003, "Location": "(45.4655606103, 9.1609177704)", "GeoJSON": { "type": "FeatureCollection", "features": [ { "id": "0", "type": "Feature", "properties": { }, "geometry": { "type": "Point", "coordinates": [ 9.1609177704, 45.4655606103 ] }, "bbox": [ 9.1609177704, 45.4655606103, 9.1609177704, 45.4655606103 ] } ], "bbox": [ 9.1609177704, 45.4655606103, 9.1609177704, 45.4655606103 ] } }, "geometry": { "type": "Point", "coordinates": [ 9.160917770399999, 45.465560610300003 ] } },
{ "type": "Feature", "properties": { "<RowID>": "Row577", "ANNOSCOL": 1415, "CODICE": 3064, "DENOMINAZIONE": "FRANCESCO MELZI D'ERIL", "GRADO": "Scuola Secondaria", "TIPO": "Statale", "PARITARIA": "No", "INDIRIZZO": "Via PIETRO MOSCATI 5", "CODVIA": 7136, "CIVICO": "5", "MUNICIPIO": 8, "ID_NIL": 69, "NIL": "SARPI", "LONG_X_4326": 9.1695942752300006, "LAT_Y_4326": 45.479399380799997, "Location": "(45.4793993808, 9.16959427523)", "GeoJSON": { "type": "FeatureCollection", "features": [ { "id": "0", "type": "Feature", "properties": { }, "geometry": { "type": "Point", "coordinates": [ 9.16959427523, 45.4793993808 ] }, "bbox": [ 9.16959427523, 45.4793993808, 9.16959427523, 45.4793993808 ] } ], "bbox": [ 9.16959427523, 45.4793993808, 9.16959427523, 45.4793993808 ] } }, "geometry": { "type": "Point", "coordinates": [ 9.169594275230001, 45.479399380799997 ] } },
{ "type": "Feature", "properties": { "<RowID>": "Row578", "ANNOSCOL": 1415, "CODICE": 3066, "DENOMINAZIONE": "LEONE XIII", "GRADO": "Scuola Secondaria", "TIPO": "Ente religioso", "PARITARIA": "SI", "INDIRIZZO": "Via LEONE TREDICESIMO 12", "CODVIA": 6353, "CIVICO": "12", "MUNICIPIO": 8, "ID_NIL": 68, "NIL": "PAGANO", "LONG_X_4326": 9.1631927664300008, "LAT_Y_4326": 45.474263479000001, "Location": "(45.474263479, 9.16319276643)", "GeoJSON": { "type": "FeatureCollection", "features": [ { "id": "0", "type": "Feature", "properties": { }, "geometry": { "type": "Point", "coordinates": [ 9.16319276643, 45.474263479 ] }, "bbox": [ 9.16319276643, 45.474263479, 9.16319276643, 45.474263479 ] } ], "bbox": [ 9.16319276643, 45.474263479, 9.16319276643, 45.474263479 ] } }, "geometry": { "type": "Point", "coordinates": [ 9.163192766430001, 45.474263479 ] } },
{ "type": "Feature", "properties": { "<RowID>": "Row579", "ANNOSCOL": 1415, "CODICE": 3069, "DENOMINAZIONE": "ISTITUTO SAN PAOLO DELLE SUORE ANGELICHE", "GRADO": "Scuola Secondaria", "TIPO": "Ente religioso", "PARITARIA": "SI", "INDIRIZZO": "Via MICHELANGELO BUONARROTI 49", "CODVIA": 6253, "CIVICO": "49", "MUNICIPIO": 8, "ID_NIL": 58, "NIL": "DE ANGELI - MONTE ROSA", "LONG_X_4326": 9.1551616068099992, "LAT_Y_4326": 45.472682404899999, "Location": "(45.4726824049, 9.15516160681)", "GeoJSON": { "type": "FeatureCollection", "features": [ { "id": "0", "type": "Feature", "properties": { }, "geometry": { "type": "Point", "coordinates": [ 9.15516160681, 45.4726824049 ] }, "bbox": [ 9.15516160681, 45.4726824049, 9.15516160681, 45.4726824049 ] } ], "bbox": [ 9.15516160681, 45.4726824049, 9.15516160681, 45.4726824049 ] } }, "geometry": { "type": "Point", "coordinates": [ 9.155161606809999, 45.472682404899999 ] } },
{ "type": "Feature", "properties": { "<RowID>": "Row580", "ANNOSCOL": 1415, "CODICE": 3071, "DENOMINAZIONE": "ALFREDO PANZINI", "GRADO": "Scuola Secondaria", "TIPO": "Statale", "PARITARIA": "No", "INDIRIZZO": "Via GIUSEPPE GIUSTI 15", "CODVIA": 7127, "CIVICO": "15", "MUNICIPIO": 1, "ID_NIL": 69, "NIL": "SARPI", "LONG_X_4326": 9.1768852608000007, "LAT_Y_4326": 45.480070788799999, "Location": "(45.4800707888, 9.1768852608)", "GeoJSON": { "type": "FeatureCollection", "features": [ { "id": "0", "type": "Feature", "properties": { }, "geometry": { "type": "Point", "coordinates": [ 9.1768852608, 45.4800707888 ] }, "bbox": [ 9.1768852608, 45.4800707888, 9.1768852608, 45.4800707888 ] } ], "bbox": [ 9.1768852608, 45.4800707888, 9.1768852608, 45.4800707888 ] } }, "geometry": { "type": "Point", "coordinates": [ 9.176885260800001, 45.480070788799999 ] } },
{ "type": "Feature", "properties": { "<RowID>": "Row581", "ANNOSCOL": 1415, "CODICE": 3073, "DENOMINAZIONE": "Maffucci", "GRADO": "Scuola Secondaria", "TIPO": "Statale", "PARITARIA": "No", "INDIRIZZO": "Via ANGIOLO MAFFUCCI 60", "CODVIA": 1276, "CIVICO": "60", "MUNICIPIO": 9, "ID_NIL": 79, "NIL": "DERGANO", "LONG_X_4326": 9.1709139174499992, "LAT_Y_4326": 45.502030402599999, "Location": "(45.5020304026, 9.17091391745)", "GeoJSON": { "type": "FeatureCollection", "features": [ { "id": "0", "type": "Feature", "properties": { }, "geometry": { "type": "Point", "coordinates": [ 9.17091391745, 45.5020304026 ] }, "bbox": [ 9.17091391745, 45.5020304026, 9.17091391745, 45.5020304026 ] } ], "bbox": [ 9.17091391745, 45.5020304026, 9.17091391745, 45.5020304026 ] } }, "geometry": { "type": "Point", "coordinates": [ 9.170913917449999, 45.502030402599999 ] } },
{ "type": "Feature", "properties": { "<RowID>": "Row582", "ANNOSCOL": 1415, "CODICE": 3074, "DENOMINAZIONE": "LODOVICO PAVONI", "GRADO": "Scuola Secondaria", "TIPO": "Statale", "PARITARIA": "No", "INDIRIZZO": "Via BENIGNO CRESPI 1", "CODVIA": 1313, "CIVICO": "1", "MUNICIPIO": 9, "ID_NIL": 79, "NIL": "DERGANO", "LONG_X_4326": 9.1860223839799993, "LAT_Y_4326": 45.498572436899998, "Location": "(45.4985724369, 9.18602238398)", "GeoJSON": { "type": "FeatureCollection", "features": [ { "id": "0", "type": "Feature", "properties": { }, "geometry": { "type": "Point", "coordinates": [ 9.18602238398, 45.4985724369 ] }, "bbox": [ 9.18602238398, 45.4985724369, 9.18602238398, 45.4985724369 ] } ], "bbox": [ 9.18602238398, 45.4985724369, 9.18602238398, 45.4985724369 ] } }, "geometry": { "type": "Point", "coordinates": [ 9.186022383979999, 45.498572436899998 ] } },
{ "type": "Feature", "properties": { "<RowID>": "Row583", "ANNOSCOL": 1415, "CODICE": 3075, "DENOMINAZIONE": "SANTA GEMMA CALGANI", "GRADO": "Scuola Secondaria", "TIPO": "Ente religioso", "PARITARIA": "SI", "INDIRIZZO": "Via FILIPPO BALDINUCCI 88", "CODVIA": 1267, "CIVICO": "88", "MUNICIPIO": 9, "ID_NIL": 77, "NIL": "BOVISA", "LONG_X_4326": 9.1673730388799992, "LAT_Y_4326": 45.502985058100002, "Location": "(45.5029850581, 9.16737303888)", "GeoJSON": { "type": "FeatureCollection", "features": [ { "id": "0", "type": "Feature", "properties": { }, "geometry": { "type": "Point", "coordinates": [ 9.16737303888, 45.5029850581 ] }, "bbox": [ 9.16737303888, 45.5029850581, 9.16737303888, 45.5029850581 ] } ], "bbox": [ 9.16737303888, 45.5029850581, 9.16737303888, 45.5029850581 ] } }, "geometry": { "type": "Point", "coordinates": [ 9.167373038879999, 45.502985058100002 ] } },
{ "type": "Feature", "properties": { "<RowID>": "Row584", "ANNOSCOL": 1415, "CODICE": 3076, "DENOMINAZIONE": "MICHELANGELO BUONARROTI", "GRADO": "Scuola Secondaria", "TIPO": "Statale", "PARITARIA": "No", "INDIRIZZO": "Via VITTORIO SCIALOIA 21", "CODVIA": 1086, "CIVICO": "21", "MUNICIPIO": 9, "ID_NIL": 80, "NIL": "AFFORI", "LONG_X_4326": 9.1796043470700006, "LAT_Y_4326": 45.508700512499999, "Location": "(45.5087005125, 9.17960434707)", "GeoJSON": { "type": "FeatureCollection", "features": [ { "id": "0", "type": "Feature", "properties": { }, "geometry": { "type": "Point", "coordinates": [ 9.17960434707, 45.5087005125 ] }, "bbox": [ 9.17960434707, 45.5087005125, 9.17960434707, 45.5087005125 ] } ], "bbox": [ 9.17960434707, 45.5087005125, 9.17960434707, 45.5087005125 ] } }, "geometry": { "type": "Point", "coordinates": [ 9.179604347070001, 45.508700512499999 ] } },
{ "type": "Feature", "properties": { "<RowID>": "Row585", "ANNOSCOL": 1415, "CODICE": 3078, "DENOMINAZIONE": "LEONARDO DA VINCI", "GRADO": "Scuola Secondaria", "TIPO": "Statale", "PARITARIA": "No", "INDIRIZZO": "Via GEORGE SAND 32", "CODVIA": 1554, "CIVICO": "32", "MUNICIPIO": 9, "ID_NIL": 80, "NIL": "AFFORI", "LONG_X_4326": 9.1734896892099993, "LAT_Y_4326": 45.518984207499997, "Location": "(45.5189842075, 9.17348968921)", "GeoJSON": { "type": "FeatureCollection", "features": [ { "id": "0", "type": "Feature", "properties": { }, "geometry": { "type": "Point", "coordinates": [ 9.17348968921, 45.5189842075 ] }, "bbox": [ 9.17348968921, 45.5189842075, 9.17348968921, 45.5189842075 ] } ], "bbox": [ 9.17348968921, 45.5189842075, 9.17348968921, 45.5189842075 ] } }, "geometry": { "type": "Point", "coordinates": [ 9.173489689209999, 45.518984207499997 ] } },
{ "type": "Feature", "properties": { "<RowID>": "Row586", "ANNOSCOL": 1415, "CODICE": 3079, "DENOMINAZIONE": "UMBERTO SABA", "GRADO": "Scuola Secondaria", "TIPO": "Statale", "PARITARIA": "No", "INDIRIZZO": "Via DEL VOLGA 3", "CODVIA": 1684, "CIVICO": "3", "MUNICIPIO": 9, "ID_NIL": 83, "NIL": "BRUZZANO", "LONG_X_4326": 9.1723712902700001, "LAT_Y_4326": 45.525522058999996, "Location": "(45.525522059, 9.17237129027)", "GeoJSON": { "type": "FeatureCollection", "features": [ { "id": "0", "type": "Feature", "properties": { }, "geometry": { "type": "Point", "coordinates": [ 9.17237129027, 45.525522059 ] }, "bbox": [ 9.17237129027, 45.525522059, 9.17237129027, 45.525522059 ] } ], "bbox": [ 9.17237129027, 45.525522059, 9.17237129027, 45.525522059 ] } }, "geometry": { "type": "Point", "coordinates": [ 9.17237129027, 45.525522059 ] } },
{ "type": "Feature", "properties": { "<RowID>": "Row587", "ANNOSCOL": 1415, "CODICE": 3080, "DENOMINAZIONE": "GIANNI RODARI", "GRADO": "Scuola Secondaria", "TIPO": "Statale", "PARITARIA": "No", "INDIRIZZO": "Via GABBRO 6", "CODVIA": 1674, "CIVICO": "6", "MUNICIPIO": 9, "ID_NIL": 81, "NIL": "BOVISASCA", "LONG_X_4326": 9.1592835094199998, "LAT_Y_4326": 45.514589056299997, "Location": "(45.5145890563, 9.15928350942)", "GeoJSON": { "type": "FeatureCollection", "features": [ { "id": "0", "type": "Feature", "properties": { }, "geometry": { "type": "Point", "coordinates": [ 9.15928350942, 45.5145890563 ] }, "bbox": [ 9.15928350942, 45.5145890563, 9.15928350942, 45.5145890563 ] } ], "bbox": [ 9.15928350942, 45.5145890563, 9.15928350942, 45.5145890563 ] } }, "geometry": { "type": "Point", "coordinates": [ 9.15928350942, 45.514589056299997 ] } },
{ "type": "Feature", "properties": { "<RowID>": "Row588", "ANNOSCOL": 1415, "CODICE": 3082, "DENOMINAZIONE": "COR JESU", "GRADO": "Scuola Secondaria", "TIPO": "Ente religioso", "PARITARIA": "SI", "INDIRIZZO": "Via TEANO 21", "CODVIA": 1632, "CIVICO": "21", "MUNICIPIO": 9, "ID_NIL": 82, "NIL": "COMASINA", "LONG_X_4326": 9.1614818360400001, "LAT_Y_4326": 45.528165543, "Location": "(45.528165543, 9.16148183604)", "GeoJSON": { "type": "FeatureCollection", "features": [ { "id": "0", "type": "Feature", "properties": { }, "geometry": { "type": "Point", "coordinates": [ 9.16148183604, 45.528165543 ] }, "bbox": [ 9.16148183604, 45.528165543, 9.16148183604, 45.528165543 ] } ], "bbox": [ 9.16148183604, 45.528165543, 9.16148183604, 45.528165543 ] } }, "geometry": { "type": "Point", "coordinates": [ 9.16148183604, 45.528165543 ] } },
{ "type": "Feature", "properties": { "<RowID>": "Row589", "ANNOSCOL": 1415, "CODICE": 3084, "DENOMINAZIONE": "FALCONE - BORSELLINO", "GRADO": "Scuola Secondaria", "TIPO": "Statale", "PARITARIA": "No", "INDIRIZZO": "Viale SARCA 24", "CODVIA": 1427, "CIVICO": "24", "MUNICIPIO": 9, "ID_NIL": 13, "NIL": "GRECO - SEGNANO", "LONG_X_4326": 9.2041122798800004, "LAT_Y_4326": 45.506982369100001, "Location": "(45.5069823691, 9.20411227988)", "GeoJSON": { "type": "FeatureCollection", "features": [ { "id": "0", "type": "Feature", "properties": { }, "geometry": { "type": "Point", "coordinates": [ 9.20411227988, 45.5069823691 ] }, "bbox": [ 9.20411227988, 45.5069823691, 9.20411227988, 45.5069823691 ] } ], "bbox": [ 9.20411227988, 45.5069823691, 9.20411227988, 45.5069823691 ] } }, "geometry": { "type": "Point", "coordinates": [ 9.20411227988, 45.506982369100001 ] } },
{ "type": "Feature", "properties": { "<RowID>": "Row590", "ANNOSCOL": 1415, "CODICE": 3085, "DENOMINAZIONE": "GINO CASSINIS", "GRADO": "Scuola Secondaria", "TIPO": "Statale", "PARITARIA": "No", "INDIRIZZO": "Via HERMADA 18", "CODVIA": 1588, "CIVICO": "18", "MUNICIPIO": 9, "ID_NIL": 14, "NIL": "NIGUARDA - CA' GRANDA - PRATO CENTENARO - Q.RE FUL", "LONG_X_4326": 9.1879786002560699, "LAT_Y_4326": 45.514433485915752, "Location": "(45.51443348591575, 9.18797860025607)", "GeoJSON": { "type": "FeatureCollection", "features": [ { "id": "0", "type": "Feature", "properties": { }, "geometry": { "type": "Point", "coordinates": [ 9.18797860025607, 45.51443348591575 ] }, "bbox": [ 9.18797860025607, 45.51443348591575, 9.18797860025607, 45.51443348591575 ] } ], "bbox": [ 9.18797860025607, 45.51443348591575, 9.18797860025607, 45.51443348591575 ] } }, "geometry": { "type": "Point", "coordinates": [ 9.18797860025607, 45.514433485915752 ] } },
{ "type": "Feature", "properties": { "<RowID>": "Row591", "ANNOSCOL": 1415, "CODICE": 3086, "DENOMINAZIONE": "GIOVANNI VERGA", "GRADO": "Scuola Secondaria", "TIPO": "Statale", "PARITARIA": "No", "INDIRIZZO": "Via ASTURIE 1", "CODVIA": 1619, "CIVICO": "1", "MUNICIPIO": 9, "ID_NIL": 14, "NIL": "NIGUARDA - CA' GRANDA - PRATO CENTENARO - Q.RE FUL", "LONG_X_4326": 9.20526620449, "LAT_Y_4326": 45.516583976200003, "Location": "(45.5165839762, 9.20526620449)", "GeoJSON": { "type": "FeatureCollection", "features": [ { "id": "0", "type": "Feature", "properties": { }, "geometry": { "type": "Point", "coordinates": [ 9.20526620449, 45.5165839762 ] }, "bbox": [ 9.20526620449, 45.5165839762, 9.20526620449, 45.5165839762 ] } ], "bbox": [ 9.20526620449, 45.5165839762, 9.20526620449, 45.5165839762 ] } }, "geometry": { "type": "Point", "coordinates": [ 9.20526620449, 45.516583976200003 ] } },
{ "type": "Feature", "properties": { "<RowID>": "Row592", "ANNOSCOL": 1415, "CODICE": 3087, "DENOMINAZIONE": "Secondaria Falcone Borsellino", "GRADO": "Scuola Secondaria", "TIPO": "Statale", "PARITARIA": "No", "INDIRIZZO": "Via THOMAS MANN 8", "CODVIA": 1701, "CIVICO": "8", "MUNICIPIO": 9, "ID_NIL": 14, "NIL": "NIGUARDA - CA' GRANDA - PRATO CENTENARO - Q.RE FUL", "LONG_X_4326": 9.2086001552399992, "LAT_Y_4326": 45.5239627662, "Location": "(45.5239627662, 9.20860015524)", "GeoJSON": { "type": "FeatureCollection", "features": [ { "id": "0", "type": "Feature", "properties": { }, "geometry": { "type": "Point", "coordinates": [ 9.20860015524, 45.5239627662 ] }, "bbox": [ 9.20860015524, 45.5239627662, 9.20860015524, 45.5239627662 ] } ], "bbox": [ 9.20860015524, 45.5239627662, 9.20860015524, 45.5239627662 ] } }, "geometry": { "type": "Point", "coordinates": [ 9.208600155239999, 45.5239627662 ] } },
{ "type": "Feature", "properties": { "<RowID>": "Row593", "ANNOSCOL": 1415, "CODICE": 3088, "DENOMINAZIONE": "CASA DEL SOLE", "GRADO": "Scuola Secondaria", "TIPO": "Statale", "PARITARIA": "No", "INDIRIZZO": "Via GIUSEPPE GIACOSA 46", "CODVIA": 2310, "CIVICO": "46", "MUNICIPIO": 2, "ID_NIL": 20, "NIL": "LORETO - CASORETTO - NOLO", "LONG_X_4326": 9.2216432493999996, "LAT_Y_4326": 45.494840668199998, "Location": "(45.4948406682, 9.2216432494)", "GeoJSON": { "type": "FeatureCollection", "features": [ { "id": "0", "type": "Feature", "properties": { }, "geometry": { "type": "Point", "coordinates": [ 9.2216432494, 45.4948406682 ] }, "bbox": [ 9.2216432494, 45.4948406682, 9.2216432494, 45.4948406682 ] } ], "bbox": [ 9.2216432494, 45.4948406682, 9.2216432494, 45.4948406682 ] } }, "geometry": { "type": "Point", "coordinates": [ 9.2216432494, 45.494840668199998 ] } },
{ "type": "Feature", "properties": { "<RowID>": "Row594", "ANNOSCOL": 1415, "CODICE": 3089, "DENOMINAZIONE": "TEODORO CIRESOLA", "GRADO": "Scuola Secondaria", "TIPO": "Statale", "PARITARIA": "No", "INDIRIZZO": "Viale BRIANZA 18", "CODVIA": 2263, "CIVICO": "18", "MUNICIPIO": 2, "ID_NIL": 20, "NIL": "LORETO - CASORETTO - NOLO", "LONG_X_4326": 9.2128703194000003, "LAT_Y_4326": 45.487931783500002, "Location": "(45.4879317835, 9.2128703194)", "GeoJSON": { "type": "FeatureCollection", "features": [ { "id": "0", "type": "Feature", "properties": { }, "geometry": { "type": "Point", "coordinates": [ 9.2128703194, 45.4879317835 ] }, "bbox": [ 9.2128703194, 45.4879317835, 9.2128703194, 45.4879317835 ] } ], "bbox": [ 9.2128703194, 45.4879317835, 9.2128703194, 45.4879317835 ] } }, "geometry": { "type": "Point", "coordinates": [ 9.2128703194, 45.487931783500002 ] } },
{ "type": "Feature", "properties": { "<RowID>": "Row595", "ANNOSCOL": 1415, "CODICE": 3090, "DENOMINAZIONE": "RINALDI", "GRADO": "Scuola Secondaria", "TIPO": "Statale", "PARITARIA": "No", "INDIRIZZO": "Via GIOVANNI PONTANO 43", "CODVIA": 2316, "CIVICO": "43", "MUNICIPIO": 2, "ID_NIL": 19, "NIL": "PADOVA - TURRO - CRESCENZAGO", "LONG_X_4326": 9.2266062472999995, "LAT_Y_4326": 45.496554197599998, "Location": "(45.4965541976, 9.2266062473)", "GeoJSON": { "type": "FeatureCollection", "features": [ { "id": "0", "type": "Feature", "properties": { }, "geometry": { "type": "Point", "coordinates": [ 9.2266062473, 45.4965541976 ] }, "bbox": [ 9.2266062473, 45.4965541976, 9.2266062473, 45.4965541976 ] } ], "bbox": [ 9.2266062473, 45.4965541976, 9.2266062473, 45.4965541976 ] } }, "geometry": { "type": "Point", "coordinates": [ 9.226606247299999, 45.496554197599998 ] } },
{ "type": "Feature", "properties": { "<RowID>": "Row596", "ANNOSCOL": 1415, "CODICE": 3093, "DENOMINAZIONE": "TREVISANI - SCAETTA", "GRADO": "Scuola Secondaria", "TIPO": "Statale", "PARITARIA": "No", "INDIRIZZO": "Via ANDREA CESALPINO 40", "CODVIA": 2467, "CIVICO": "40", "MUNICIPIO": 2, "ID_NIL": 16, "NIL": "GORLA - PRECOTTO", "LONG_X_4326": 9.2315271411800008, "LAT_Y_4326": 45.5074433992, "Location": "(45.5074433992, 9.23152714118)", "GeoJSON": { "type": "FeatureCollection", "features": [ { "id": "0", "type": "Feature", "properties": { }, "geometry": { "type": "Point", "coordinates": [ 9.23152714118, 45.5074433992 ] }, "bbox": [ 9.23152714118, 45.5074433992, 9.23152714118, 45.5074433992 ] } ], "bbox": [ 9.23152714118, 45.5074433992, 9.23152714118, 45.5074433992 ] } }, "geometry": { "type": "Point", "coordinates": [ 9.231527141180001, 45.5074433992 ] } },
{ "type": "Feature", "properties": { "<RowID>": "Row597", "ANNOSCOL": 1415, "CODICE": 3094, "DENOMINAZIONE": "ITALO CALVINO", "GRADO": "Scuola Secondaria", "TIPO": "Statale", "PARITARIA": "No", "INDIRIZZO": "Via FRIGIA 4", "CODVIA": 2439, "CIVICO": "4", "MUNICIPIO": 2, "ID_NIL": 16, "NIL": "GORLA - PRECOTTO", "LONG_X_4326": 9.2220201124199992, "LAT_Y_4326": 45.515075736100002, "Location": "(45.5150757361, 9.22202011242)", "GeoJSON": { "type": "FeatureCollection", "features": [ { "id": "0", "type": "Feature", "properties": { }, "geometry": { "type": "Point", "coordinates": [ 9.22202011242, 45.5150757361 ] }, "bbox": [ 9.22202011242, 45.5150757361, 9.22202011242, 45.5150757361 ] } ], "bbox": [ 9.22202011242, 45.5150757361, 9.22202011242, 45.5150757361 ] } }, "geometry": { "type": "Point", "coordinates": [ 9.222020112419999, 45.515075736100002 ] } },
{ "type": "Feature", "properties": { "<RowID>": "Row598", "ANNOSCOL": 1415, "CODICE": 3095, "DENOMINAZIONE": "PREZIOSISSIMO SANGUE", "GRADO": "Scuola Secondaria", "TIPO": "Ente religioso", "PARITARIA": "SI", "INDIRIZZO": "Via PADRE PLACIDO RICCARDI 5", "CODVIA": 2385, "CIVICO": "5", "MUNICIPIO": 2, "ID_NIL": 19, "NIL": "PADOVA - TURRO - CRESCENZAGO", "LONG_X_4326": 9.2389721357100001, "LAT_Y_4326": 45.501436439800003, "Location": "(45.5014364398, 9.23897213571)", "GeoJSON": { "type": "FeatureCollection", "features": [ { "id": "0", "type": "Feature", "properties": { }, "geometry": { "type": "Point", "coordinates": [ 9.23897213571, 45.5014364398 ] }, "bbox": [ 9.23897213571, 45.5014364398, 9.23897213571, 45.5014364398 ] } ], "bbox": [ 9.23897213571, 45.5014364398, 9.23897213571, 45.5014364398 ] } }, "geometry": { "type": "Point", "coordinates": [ 9.23897213571, 45.501436439800003 ] } },
{ "type": "Feature", "properties": { "<RowID>": "Row599", "ANNOSCOL": 1415, "CODICE": 3096, "DENOMINAZIONE": "SAN GIUSEPPE", "GRADO": "Scuola Secondaria", "TIPO": "Ente religioso", "PARITARIA": "SI", "INDIRIZZO": "Via SAN GIOVANNI BATTISTA DE LA SALLE 5", "CODVIA": 2514, "CIVICO": "5", "MUNICIPIO": 2, "ID_NIL": 19, "NIL": "PADOVA - TURRO - CRESCENZAGO", "LONG_X_4326": 9.2415875914400001, "LAT_Y_4326": 45.502520912000001, "Location": "(45.502520912, 9.24158759144)", "GeoJSON": { "type": "FeatureCollection", "features": [ { "id": "0", "type": "Feature", "properties": { }, "geometry": { "type": "Point", "coordinates": [ 9.24158759144, 45.502520912 ] }, "bbox": [ 9.24158759144, 45.502520912, 9.24158759144, 45.502520912 ] } ], "bbox": [ 9.24158759144, 45.502520912, 9.24158759144, 45.502520912 ] } }, "geometry": { "type": "Point", "coordinates": [ 9.24158759144, 45.502520912 ] } },
{ "type": "Feature", "properties": { "<RowID>": "Row600", "ANNOSCOL": 1415, "CODICE": 3097, "DENOMINAZIONE": "Cipro", "GRADO": "Scuola Secondaria", "TIPO": "Statale", "PARITARIA": "No", "INDIRIZZO": "Via CIPRO 2", "CODVIA": 3144, "CIVICO": "2", "MUNICIPIO": 4, "ID_NIL": 28, "NIL": "UMBRIA - MOLISE - CALVAIRATE", "LONG_X_4326": 9.2220575586900004, "LAT_Y_4326": 45.461122076899997, "Location": "(45.4611220769, 9.22205755869)", "GeoJSON": { "type": "FeatureCollection", "features": [ { "id": "0", "type": "Feature", "properties": { }, "geometry": { "type": "Point", "coordinates": [ 9.22205755869, 45.4611220769 ] }, "bbox": [ 9.22205755869, 45.4611220769, 9.22205755869, 45.4611220769 ] } ], "bbox": [ 9.22205755869, 45.4611220769, 9.22205755869, 45.4611220769 ] } }, "geometry": { "type": "Point", "coordinates": [ 9.22205755869, 45.461122076899997 ] } },
{ "type": "Feature", "properties": { "<RowID>": "Row601", "ANNOSCOL": 1415, "CODICE": 3098, "DENOMINAZIONE": "ASCOLI", "GRADO": "Scuola Secondaria", "TIPO": "Statale", "PARITARIA": "No", "INDIRIZZO": "Via LUIGI DE ANDREIS 10", "CODVIA": 3272, "CIVICO": "10", "MUNICIPIO": 4, "ID_NIL": 25, "NIL": "CORSICA", "LONG_X_4326": 9.2353513403100003, "LAT_Y_4326": 45.461515543600001, "Location": "(45.4615155436, 9.23535134031)", "GeoJSON": { "type": "FeatureCollection", "features": [ { "id": "0", "type": "Feature", "properties": { }, "geometry": { "type": "Point", "coordinates": [ 9.23535134031, 45.4615155436 ] }, "bbox": [ 9.23535134031, 45.4615155436, 9.23535134031, 45.4615155436 ] } ], "bbox": [ 9.23535134031, 45.4615155436, 9.23535134031, 45.4615155436 ] } }, "geometry": { "type": "Point", "coordinates": [ 9.23535134031, 45.461515543600001 ] } },
{ "type": "Feature", "properties": { "<RowID>": "Row602", "ANNOSCOL": 1415, "CODICE": 3099, "DENOMINAZIONE": "ADELAIDE CAIROLI", "GRADO": "Scuola Secondaria", "TIPO": "Statale", "PARITARIA": "No", "INDIRIZZO": "Via CARLO PASCAL 35", "CODVIA": 2225, "CIVICO": "35", "MUNICIPIO": 3, "ID_NIL": 22, "NIL": "CITTA' STUDI", "LONG_X_4326": 9.2348198700400008, "LAT_Y_4326": 45.478646114900002, "Location": "(45.4786461149, 9.23481987004)", "GeoJSON": { "type": "FeatureCollection", "features": [ { "id": "0", "type": "Feature", "properties": { }, "geometry": { "type": "Point", "coordinates": [ 9.23481987004, 45.4786461149 ] }, "bbox": [ 9.23481987004, 45.4786461149, 9.23481987004, 45.4786461149 ] } ], "bbox": [ 9.23481987004, 45.4786461149, 9.23481987004, 45.4786461149 ] } }, "geometry": { "type": "Point", "coordinates": [ 9.234819870040001, 45.478646114900002 ] } },
{ "type": "Feature", "properties": { "<RowID>": "Row603", "ANNOSCOL": 1415, "CODICE": 3100, "DENOMINAZIONE": "QUINTINO DI VONA", "GRADO": "Scuola Secondaria", "TIPO": "Statale", "PARITARIA": "No", "INDIRIZZO": "Via ANTONIO SACCHINI 34", "CODVIA": 2252, "CIVICO": "34", "MUNICIPIO": 3, "ID_NIL": 20, "NIL": "LORETO - CASORETTO - NOLO", "LONG_X_4326": 9.2202908551484857, "LAT_Y_4326": 45.486804892433774, "Location": "(45.486804892433774, 9.220290855148486)", "GeoJSON": { "type": "FeatureCollection", "features": [ { "id": "0", "type": "Feature", "properties": { }, "geometry": { "type": "Point", "coordinates": [ 9.220290855148486, 45.486804892433774 ] }, "bbox": [ 9.220290855148486, 45.486804892433774, 9.220290855148486, 45.486804892433774 ] } ], "bbox": [ 9.220290855148486, 45.486804892433774, 9.220290855148486, 45.486804892433774 ] } }, "geometry": { "type": "Point", "coordinates": [ 9.220290855148486, 45.486804892433774 ] } },
{ "type": "Feature", "properties": { "<RowID>": "Row604", "ANNOSCOL": 1415, "CODICE": 3102, "DENOMINAZIONE": "GIOVANNI PASCOLI", "GRADO": "Scuola Secondaria", "TIPO": "Statale", "PARITARIA": "No", "INDIRIZZO": "Via GIOVANNI COVA 5", "CODVIA": 3158, "CIVICO": "5", "MUNICIPIO": 4, "ID_NIL": 25, "NIL": "CORSICA", "LONG_X_4326": 9.2365251455300008, "LAT_Y_4326": 45.468939643, "Location": "(45.468939643, 9.23652514553)", "GeoJSON": { "type": "FeatureCollection", "features": [ { "id": "0", "type": "Feature", "properties": { }, "geometry": { "type": "Point", "coordinates": [ 9.23652514553, 45.468939643 ] }, "bbox": [ 9.23652514553, 45.468939643, 9.23652514553, 45.468939643 ] } ], "bbox": [ 9.23652514553, 45.468939643, 9.23652514553, 45.468939643 ] } }, "geometry": { "type": "Point", "coordinates": [ 9.236525145530001, 45.468939643 ] } },
{ "type": "Feature", "properties": { "<RowID>": "Row605", "ANNOSCOL": 1415, "CODICE": 3105, "DENOMINAZIONE": "FAES MONFORTE - SCUOLA SECONDARIA I GRADO FEMMINILE", "GRADO": "Scuola Secondaria", "TIPO": "Ente privato laico", "PARITARIA": "SI", "INDIRIZZO": "Via GIOVANNI ANTONIO AMADEO 11", "CODVIA": 3228, "CIVICO": "11", "MUNICIPIO": 3, "ID_NIL": 22, "NIL": "CITTA' STUDI", "LONG_X_4326": 9.2317022030599993, "LAT_Y_4326": 45.471077214399998, "Location": "(45.4710772144, 9.23170220306)", "GeoJSON": { "type": "FeatureCollection", "features": [ { "id": "0", "type": "Feature", "properties": { }, "geometry": { "type": "Point", "coordinates": [ 9.23170220306, 45.4710772144 ] }, "bbox": [ 9.23170220306, 45.4710772144, 9.23170220306, 45.4710772144 ] } ], "bbox": [ 9.23170220306, 45.4710772144, 9.23170220306, 45.4710772144 ] } }, "geometry": { "type": "Point", "coordinates": [ 9.231702203059999, 45.471077214399998 ] } },
{ "type": "Feature", "properties": { "<RowID>": "Row606", "ANNOSCOL": 1415, "CODICE": 3106, "DENOMINAZIONE": "SAN GIUSEPPE", "GRADO": "Scuola Secondaria", "TIPO": "Ente religioso", "PARITARIA": "SI", "INDIRIZZO": "Via ANTONIO BAZZINI 10", "CODVIA": 2427, "CIVICO": "10", "MUNICIPIO": 3, "ID_NIL": 22, "NIL": "CITTA' STUDI", "LONG_X_4326": 9.2252615690400006, "LAT_Y_4326": 45.481795157500002, "Location": "(45.4817951575, 9.22526156904)", "GeoJSON": { "type": "FeatureCollection", "features": [ { "id": "0", "type": "Feature", "properties": { }, "geometry": { "type": "Point", "coordinates": [ 9.22526156904, 45.4817951575 ] }, "bbox": [ 9.22526156904, 45.4817951575, 9.22526156904, 45.4817951575 ] } ], "bbox": [ 9.22526156904, 45.4817951575, 9.22526156904, 45.4817951575 ] } }, "geometry": { "type": "Point", "coordinates": [ 9.225261569040001, 45.481795157500002 ] } },
{ "type": "Feature", "properties": { "<RowID>": "Row607", "ANNOSCOL": 1415, "CODICE": 3110, "DENOMINAZIONE": "FONDAZIONE SACRO CUORE", "GRADO": "Scuola Secondaria", "TIPO": "Ente religioso", "PARITARIA": "SI", "INDIRIZZO": "Via ROMBON 78", "CODVIA": 2659, "CIVICO": "78", "MUNICIPIO": 3, "ID_NIL": 23, "NIL": "LAMBRATE - ORTICA", "LONG_X_4326": 9.25215457923, "LAT_Y_4326": 45.486179170600003, "Location": "(45.4861791706, 9.25215457923)", "GeoJSON": { "type": "FeatureCollection", "features": [ { "id": "0", "type": "Feature", "properties": { }, "geometry": { "type": "Point", "coordinates": [ 9.25215457923, 45.4861791706 ] }, "bbox": [ 9.25215457923, 45.4861791706, 9.25215457923, 45.4861791706 ] } ], "bbox": [ 9.25215457923, 45.4861791706, 9.25215457923, 45.4861791706 ] } }, "geometry": { "type": "Point", "coordinates": [ 9.25215457923, 45.486179170600003 ] } },
{ "type": "Feature", "properties": { "<RowID>": "Row608", "ANNOSCOL": 1415, "CODICE": 3111, "DENOMINAZIONE": "MARIA MATER MEA", "GRADO": "Scuola Secondaria", "TIPO": "Ente religioso", "PARITARIA": "SI", "INDIRIZZO": "Via PUSIANO 57", "CODVIA": 2397, "CIVICO": "57", "MUNICIPIO": 3, "ID_NIL": 18, "NIL": "CIMIANO - ROTTOLE - Q.RE FELTRE", "LONG_X_4326": 9.2464403885199999, "LAT_Y_4326": 45.500538142899998, "Location": "(45.5005381429, 9.24644038852)", "GeoJSON": { "type": "FeatureCollection", "features": [ { "id": "0", "type": "Feature", "properties": { }, "geometry": { "type": "Point", "coordinates": [ 9.24644038852, 45.5005381429 ] }, "bbox": [ 9.24644038852, 45.5005381429, 9.24644038852, 45.5005381429 ] } ], "bbox": [ 9.24644038852, 45.5005381429, 9.24644038852, 45.5005381429 ] } }, "geometry": { "type": "Point", "coordinates": [ 9.24644038852, 45.500538142899998 ] } },
{ "type": "Feature", "properties": { "<RowID>": "Row609", "ANNOSCOL": 1415, "CODICE": 3114, "DENOMINAZIONE": "MEDA - FERRARIN", "GRADO": "Scuola Secondaria", "TIPO": "Statale", "PARITARIA": "No", "INDIRIZZO": "Via UGO GUIDO MONDOLFO 7", "CODVIA": 3367, "CIVICO": "7", "MUNICIPIO": 4, "ID_NIL": 30, "NIL": "TALIEDO - MORSENCHIO - Q.RE FORLANINI", "LONG_X_4326": 9.2534423716800003, "LAT_Y_4326": 45.447603041000001, "Location": "(45.447603041, 9.25344237168)", "GeoJSON": { "type": "FeatureCollection", "features": [ { "id": "0", "type": "Feature", "properties": { }, "geometry": { "type": "Point", "coordinates": [ 9.25344237168, 45.447603041 ] }, "bbox": [ 9.25344237168, 45.447603041, 9.25344237168, 45.447603041 ] } ], "bbox": [ 9.25344237168, 45.447603041, 9.25344237168, 45.447603041 ] } }, "geometry": { "type": "Point", "coordinates": [ 9.25344237168, 45.447603041 ] } },
{ "type": "Feature", "properties": { "<RowID>": "Row610", "ANNOSCOL": 1415, "CODICE": 3115, "DENOMINAZIONE": "SAN FRANCESCO D'ASSISI", "GRADO": "Scuola Secondaria", "TIPO": "Statale", "PARITARIA": "No", "INDIRIZZO": "Via DALMAZIA 4", "CODVIA": 3363, "CIVICO": "4", "MUNICIPIO": 4, "ID_NIL": 30, "NIL": "TALIEDO - MORSENCHIO - Q.RE FORLANINI", "LONG_X_4326": 9.2432640319099999, "LAT_Y_4326": 45.457798555799997, "Location": "(45.4577985558, 9.24326403191)", "GeoJSON": { "type": "FeatureCollection", "features": [ { "id": "0", "type": "Feature", "properties": { }, "geometry": { "type": "Point", "coordinates": [ 9.24326403191, 45.4577985558 ] }, "bbox": [ 9.24326403191, 45.4577985558, 9.24326403191, 45.4577985558 ] } ], "bbox": [ 9.24326403191, 45.4577985558, 9.24326403191, 45.4577985558 ] } }, "geometry": { "type": "Point", "coordinates": [ 9.24326403191, 45.457798555799997 ] } },
{ "type": "Feature", "properties": { "<RowID>": "Row611", "ANNOSCOL": 1415, "CODICE": 3116, "DENOMINAZIONE": "RENZO PEZZANI", "GRADO": "Scuola Secondaria", "TIPO": "Statale", "PARITARIA": "No", "INDIRIZZO": "Via FRANCESCO MARTINENGO 34/6", "CODVIA": 4183, "CIVICO": "34/6", "MUNICIPIO": 4, "ID_NIL": 35, "NIL": "LODI - CORVETTO", "LONG_X_4326": 9.2289779227200004, "LAT_Y_4326": 45.4423527521, "Location": "(45.4423527521, 9.22897792272)", "GeoJSON": { "type": "FeatureCollection", "features": [ { "id": "0", "type": "Feature", "properties": { }, "geometry": { "type": "Point", "coordinates": [ 9.22897792272, 45.4423527521 ] }, "bbox": [ 9.22897792272, 45.4423527521, 9.22897792272, 45.4423527521 ] } ], "bbox": [ 9.22897792272, 45.4423527521, 9.22897792272, 45.4423527521 ] } }, "geometry": { "type": "Point", "coordinates": [ 9.22897792272, 45.4423527521 ] } },
{ "type": "Feature", "properties": { "<RowID>": "Row612", "ANNOSCOL": 1415, "CODICE": 3118, "DENOMINAZIONE": "ELSA MORANTE", "GRADO": "Scuola Secondaria", "TIPO": "Statale", "PARITARIA": "No", "INDIRIZZO": "Via ENRICO HEINE 2", "CODVIA": 4237, "CIVICO": "2", "MUNICIPIO": 5, "ID_NIL": 37, "NIL": "MORIVIONE", "LONG_X_4326": 9.19355794216, "LAT_Y_4326": 45.439493610299998, "Location": "(45.4394936103, 9.19355794216)", "GeoJSON": { "type": "FeatureCollection", "features": [ { "id": "0", "type": "Feature", "properties": { }, "geometry": { "type": "Point", "coordinates": [ 9.19355794216, 45.4394936103 ] }, "bbox": [ 9.19355794216, 45.4394936103, 9.19355794216, 45.4394936103 ] } ], "bbox": [ 9.19355794216, 45.4394936103, 9.19355794216, 45.4394936103 ] } }, "geometry": { "type": "Point", "coordinates": [ 9.19355794216, 45.439493610299998 ] } },
{ "type": "Feature", "properties": { "<RowID>": "Row613", "ANNOSCOL": 1415, "CODICE": 3119, "DENOMINAZIONE": "REDAELLI", "GRADO": "Scuola Secondaria", "TIPO": "Statale", "PARITARIA": "No", "INDIRIZZO": "Via GIACOMO MEDICI DEL VASCELLO 42", "CODVIA": 3377, "CIVICO": "42", "MUNICIPIO": 4, "ID_NIL": 33, "NIL": "ROGOREDO - SANTA GIULIA", "LONG_X_4326": 9.2415416947099995, "LAT_Y_4326": 45.4394132125, "Location": "(45.4394132125, 9.24154169471)", "GeoJSON": { "type": "FeatureCollection", "features": [ { "id": "0", "type": "Feature", "properties": { }, "geometry": { "type": "Point", "coordinates": [ 9.24154169471, 45.4394132125 ] }, "bbox": [ 9.24154169471, 45.4394132125, 9.24154169471, 45.4394132125 ] } ], "bbox": [ 9.24154169471, 45.4394132125, 9.24154169471, 45.4394132125 ] } }, "geometry": { "type": "Point", "coordinates": [ 9.24154169471, 45.4394132125 ] } },
{ "type": "Feature", "properties": { "<RowID>": "Row614", "ANNOSCOL": 1415, "CODICE": 3120, "DENOMINAZIONE": "ARTURO TOSCANINI", "GRADO": "Scuola Secondaria", "TIPO": "Statale", "PARITARIA": "No", "INDIRIZZO": "Via DEI GUARNERI 21", "CODVIA": 4300, "CIVICO": "21", "MUNICIPIO": 5, "ID_NIL": 38, "NIL": "VIGENTINO - Q.RE FATIMA", "LONG_X_4326": 9.2047121316999991, "LAT_Y_4326": 45.426255040199997, "Location": "(45.4262550402, 9.2047121317)", "GeoJSON": { "type": "FeatureCollection", "features": [ { "id": "0", "type": "Feature", "properties": { }, "geometry": { "type": "Point", "coordinates": [ 9.2047121317, 45.4262550402 ] }, "bbox": [ 9.2047121317, 45.4262550402, 9.2047121317, 45.4262550402 ] } ], "bbox": [ 9.2047121317, 45.4262550402, 9.2047121317, 45.4262550402 ] } }, "geometry": { "type": "Point", "coordinates": [ 9.204712131699999, 45.426255040199997 ] } },
{ "type": "Feature", "properties": { "<RowID>": "Row615", "ANNOSCOL": 1415, "CODICE": 3121, "DENOMINAZIONE": "MARCELLO CANDIA", "GRADO": "Scuola Secondaria", "TIPO": "Statale", "PARITARIA": "No", "INDIRIZZO": "Via MINCIO 21", "CODVIA": 4157, "CIVICO": "21", "MUNICIPIO": 4, "ID_NIL": 35, "NIL": "LODI - CORVETTO", "LONG_X_4326": 9.2180457500100008, "LAT_Y_4326": 45.439085076600001, "Location": "(45.4390850766, 9.21804575001)", "GeoJSON": { "type": "FeatureCollection", "features": [ { "id": "0", "type": "Feature", "properties": { }, "geometry": { "type": "Point", "coordinates": [ 9.21804575001, 45.4390850766 ] }, "bbox": [ 9.21804575001, 45.4390850766, 9.21804575001, 45.4390850766 ] } ], "bbox": [ 9.21804575001, 45.4390850766, 9.21804575001, 45.4390850766 ] } }, "geometry": { "type": "Point", "coordinates": [ 9.218045750010001, 45.439085076600001 ] } },
{ "type": "Feature", "properties": { "<RowID>": "Row616", "ANNOSCOL": 1415, "CODICE": 3123, "DENOMINAZIONE": "SAN VINCENZO REGINA MUNDI", "GRADO": "Scuola Secondaria", "TIPO": "Ente religioso", "PARITARIA": "SI", "INDIRIZZO": "Via CARLO BONCOMPAGNI 18", "CODVIA": 4182, "CIVICO": "18", "MUNICIPIO": 4, "ID_NIL": 35, "NIL": "LODI - CORVETTO", "LONG_X_4326": 9.2268778726900003, "LAT_Y_4326": 45.440082459000003, "Location": "(45.440082459, 9.22687787269)", "GeoJSON": { "type": "FeatureCollection", "features": [ { "id": "0", "type": "Feature", "properties": { }, "geometry": { "type": "Point", "coordinates": [ 9.22687787269, 45.440082459 ] }, "bbox": [ 9.22687787269, 45.440082459, 9.22687787269, 45.440082459 ] } ], "bbox": [ 9.22687787269, 45.440082459, 9.22687787269, 45.440082459 ] } }, "geometry": { "type": "Point", "coordinates": [ 9.22687787269, 45.440082459 ] } },
{ "type": "Feature", "properties": { "<RowID>": "Row617", "ANNOSCOL": 1415, "CODICE": 3124, "DENOMINAZIONE": "SCUOLA EUROPA", "GRADO": "Scuola Secondaria", "TIPO": "Ente privato laico", "PARITARIA": "SI", "INDIRIZZO": "Viale LUIGI MAJNO 39", "CODVIA": 2178, "CIVICO": "39", "MUNICIPIO": 1, "ID_NIL": 4, "NIL": "GUASTALLA", "LONG_X_4326": 9.2050811111099993, "LAT_Y_4326": 45.472397305299999, "Location": "(45.4723973053, 9.20508111111)", "GeoJSON": { "type": "FeatureCollection", "features": [ { "id": "0", "type": "Feature", "properties": { }, "geometry": { "type": "Point", "coordinates": [ 9.20508111111, 45.4723973053 ] }, "bbox": [ 9.20508111111, 45.4723973053, 9.20508111111, 45.4723973053 ] } ], "bbox": [ 9.20508111111, 45.4723973053, 9.20508111111, 45.4723973053 ] } }, "geometry": { "type": "Point", "coordinates": [ 9.205081111109999, 45.472397305299999 ] } },
{ "type": "Feature", "properties": { "<RowID>": "Row618", "ANNOSCOL": 1415, "CODICE": 3125, "DENOMINAZIONE": "Arcadia", "GRADO": "Scuola Secondaria", "TIPO": "Statale", "PARITARIA": "No", "INDIRIZZO": "Via DELL'ARCADIA 24", "CODVIA": 5439, "CIVICO": "24", "MUNICIPIO": 5, "ID_NIL": 41, "NIL": "GRATOSOGLIO - Q.RE MISSAGLIA - Q.RE TERRAZZE", "LONG_X_4326": 9.1716651731399992, "LAT_Y_4326": 45.418052428199999, "Location": "(45.4180524282, 9.17166517314)", "GeoJSON": { "type": "FeatureCollection", "features": [ { "id": "0", "type": "Feature", "properties": { }, "geometry": { "type": "Point", "coordinates": [ 9.17166517314, 45.4180524282 ] }, "bbox": [ 9.17166517314, 45.4180524282, 9.17166517314, 45.4180524282 ] } ], "bbox": [ 9.17166517314, 45.4180524282, 9.17166517314, 45.4180524282 ] } }, "geometry": { "type": "Point", "coordinates": [ 9.171665173139999, 45.418052428199999 ] } },
{ "type": "Feature", "properties": { "<RowID>": "Row619", "ANNOSCOL": 1415, "CODICE": 3128, "DENOMINAZIONE": "SANDRO PERTINI", "GRADO": "Scuola Secondaria", "TIPO": "Statale", "PARITARIA": "No", "INDIRIZZO": "Via PIETRO BOIFAVA 52", "CODVIA": 5341, "CIVICO": "52", "MUNICIPIO": 5, "ID_NIL": 42, "NIL": "STADERA - CHIESA ROSSA - Q.RE TORRETTA - CONCA FAL", "LONG_X_4326": 9.1737229277899992, "LAT_Y_4326": 45.426576810500002, "Location": "(45.4265768105, 9.17372292779)", "GeoJSON": { "type": "FeatureCollection", "features": [ { "id": "0", "type": "Feature", "properties": { }, "geometry": { "type": "Point", "coordinates": [ 9.17372292779, 45.4265768105 ] }, "bbox": [ 9.17372292779, 45.4265768105, 9.17372292779, 45.4265768105 ] } ], "bbox": [ 9.17372292779, 45.4265768105, 9.17372292779, 45.4265768105 ] } }, "geometry": { "type": "Point", "coordinates": [ 9.173722927789999, 45.426576810500002 ] } },
{ "type": "Feature", "properties": { "<RowID>": "Row620", "ANNOSCOL": 1415, "CODICE": 3129, "DENOMINAZIONE": "ISTITUTO MADRE COCCHETTI ANNNUNCIATA", "GRADO": "Scuola Secondaria", "TIPO": "Ente religioso", "PARITARIA": "SI", "INDIRIZZO": "Viale GIOVANNI DA CERMENATE 4", "CODVIA": 5261, "CIVICO": "4", "MUNICIPIO": 5, "ID_NIL": 42, "NIL": "STADERA - CHIESA ROSSA - Q.RE TORRETTA - CONCA FAL", "LONG_X_4326": 9.1766893930299993, "LAT_Y_4326": 45.437295843000001, "Location": "(45.437295843, 9.17668939303)", "GeoJSON": { "type": "FeatureCollection", "features": [ { "id": "0", "type": "Feature", "properties": { }, "geometry": { "type": "Point", "coordinates": [ 9.17668939303, 45.437295843 ] }, "bbox": [ 9.17668939303, 45.437295843, 9.17668939303, 45.437295843 ] } ], "bbox": [ 9.17668939303, 45.437295843, 9.17668939303, 45.437295843 ] } }, "geometry": { "type": "Point", "coordinates": [ 9.176689393029999, 45.437295843 ] } },
{ "type": "Feature", "properties": { "<RowID>": "Row621", "ANNOSCOL": 1415, "CODICE": 3130, "DENOMINAZIONE": "LA ZOLLA", "GRADO": "Scuola Secondaria", "TIPO": "Ente religioso", "PARITARIA": "SI", "INDIRIZZO": "Via GIULIO CARCANO 53", "CODVIA": 5248, "CIVICO": "53", "MUNICIPIO": 5, "ID_NIL": 43, "NIL": "TIBALDI", "LONG_X_4326": 9.1850037007300003, "LAT_Y_4326": 45.4394469828, "Location": "(45.4394469828, 9.18500370073)", "GeoJSON": { "type": "FeatureCollection", "features": [ { "id": "0", "type": "Feature", "properties": { }, "geometry": { "type": "Point", "coordinates": [ 9.18500370073, 45.4394469828 ] }, "bbox": [ 9.18500370073, 45.4394469828, 9.18500370073, 45.4394469828 ] } ], "bbox": [ 9.18500370073, 45.4394469828, 9.18500370073, 45.4394469828 ] } }, "geometry": { "type": "Point", "coordinates": [ 9.18500370073, 45.4394469828 ] } },
{ "type": "Feature", "properties": { "<RowID>": "Row622", "ANNOSCOL": 1415, "CODICE": 3131, "DENOMINAZIONE": "ILARIA ALPI", "GRADO": "Scuola Secondaria", "TIPO": "Statale", "PARITARIA": "No", "INDIRIZZO": "Via SALERNO 1", "CODVIA": 5269, "CIVICO": "1", "MUNICIPIO": 6, "ID_NIL": 48, "NIL": "RONCHETTO SUL NAVIGLIO - Q.RE LODOVICO IL MORO", "LONG_X_4326": 9.1484928087899995, "LAT_Y_4326": 45.437777730800001, "Location": "(45.4377777308, 9.14849280879)", "GeoJSON": { "type": "FeatureCollection", "features": [ { "id": "0", "type": "Feature", "properties": { }, "geometry": { "type": "Point", "coordinates": [ 9.14849280879, 45.4377777308 ] }, "bbox": [ 9.14849280879, 45.4377777308, 9.14849280879, 45.4377777308 ] } ], "bbox": [ 9.14849280879, 45.4377777308, 9.14849280879, 45.4377777308 ] } }, "geometry": { "type": "Point", "coordinates": [ 9.148492808789999, 45.437777730800001 ] } },
{ "type": "Feature", "properties": { "<RowID>": "Row623", "ANNOSCOL": 1415, "CODICE": 3132, "DENOMINAZIONE": "FRA AGOSTINO GEMELLI", "GRADO": "Scuola Secondaria", "TIPO": "Statale", "PARITARIA": "No", "INDIRIZZO": "Via PESCARENICO 2", "CODVIA": 5438, "CIVICO": "2", "MUNICIPIO": 5, "ID_NIL": 42, "NIL": "STADERA - CHIESA ROSSA - Q.RE TORRETTA - CONCA FAL", "LONG_X_4326": 9.1722743485800002, "LAT_Y_4326": 45.4331579941, "Location": "(45.4331579941, 9.17227434858)", "GeoJSON": { "type": "FeatureCollection", "features": [ { "id": "0", "type": "Feature", "properties": { }, "geometry": { "type": "Point", "coordinates": [ 9.17227434858, 45.4331579941 ] }, "bbox": [ 9.17227434858, 45.4331579941, 9.17227434858, 45.4331579941 ] } ], "bbox": [ 9.17227434858, 45.4331579941, 9.17227434858, 45.4331579941 ] } }, "geometry": { "type": "Point", "coordinates": [ 9.17227434858, 45.4331579941 ] } },
{ "type": "Feature", "properties": { "<RowID>": "Row624", "ANNOSCOL": 1415, "CODICE": 3133, "DENOMINAZIONE": "GRAMSCI - GEMELLI", "GRADO": "Scuola Secondaria", "TIPO": "Statale", "PARITARIA": "No", "INDIRIZZO": "Via FRANCO TOSI 21", "CODVIA": 5296, "CIVICO": "21", "MUNICIPIO": 6, "ID_NIL": 45, "NIL": "MONCUCCO - SAN CRISTOFORO", "LONG_X_4326": 9.1581609935100001, "LAT_Y_4326": 45.443905331099998, "Location": "(45.4439053311, 9.15816099351)", "GeoJSON": { "type": "FeatureCollection", "features": [ { "id": "0", "type": "Feature", "properties": { }, "geometry": { "type": "Point", "coordinates": [ 9.15816099351, 45.4439053311 ] }, "bbox": [ 9.15816099351, 45.4439053311, 9.15816099351, 45.4439053311 ] } ], "bbox": [ 9.15816099351, 45.4439053311, 9.15816099351, 45.4439053311 ] } }, "geometry": { "type": "Point", "coordinates": [ 9.15816099351, 45.443905331099998 ] } },
{ "type": "Feature", "properties": { "<RowID>": "Row625", "ANNOSCOL": 1415, "CODICE": 3134, "DENOMINAZIONE": "SANT'AMBROGIO", "GRADO": "Scuola Secondaria", "TIPO": "Statale", "PARITARIA": "No", "INDIRIZZO": "Via ENRICO DE NICOLA 40", "CODVIA": 5430, "CIVICO": "40", "MUNICIPIO": 6, "ID_NIL": 46, "NIL": "BARONA", "LONG_X_4326": 9.15919690554, "LAT_Y_4326": 45.430142112299997, "Location": "(45.4301421123, 9.15919690554)", "GeoJSON": { "type": "FeatureCollection", "features": [ { "id": "0", "type": "Feature", "properties": { }, "geometry": { "type": "Point", "coordinates": [ 9.15919690554, 45.4301421123 ] }, "bbox": [ 9.15919690554, 45.4301421123, 9.15919690554, 45.4301421123 ] } ], "bbox": [ 9.15919690554, 45.4301421123, 9.15919690554, 45.4301421123 ] } }, "geometry": { "type": "Point", "coordinates": [ 9.15919690554, 45.430142112299997 ] } },
{ "type": "Feature", "properties": { "<RowID>": "Row626", "ANNOSCOL": 1415, "CODICE": 3135, "DENOMINAZIONE": "TRE CASTELLI", "GRADO": "Scuola Secondaria", "TIPO": "Statale", "PARITARIA": "No", "INDIRIZZO": "Via RICCARDO BALSAMO CRIVELLI 3", "CODVIA": 5447, "CIVICO": "3", "MUNICIPIO": 6, "ID_NIL": 48, "NIL": "RONCHETTO SUL NAVIGLIO - Q.RE LODOVICO IL MORO", "LONG_X_4326": 9.1375160347200008, "LAT_Y_4326": 45.439083975400003, "Location": "(45.4390839754, 9.13751603472)", "GeoJSON": { "type": "FeatureCollection", "features": [ { "id": "0", "type": "Feature", "properties": { }, "geometry": { "type": "Point", "coordinates": [ 9.13751603472, 45.4390839754 ] }, "bbox": [ 9.13751603472, 45.4390839754, 9.13751603472, 45.4390839754 ] } ], "bbox": [ 9.13751603472, 45.4390839754, 9.13751603472, 45.4390839754 ] } }, "geometry": { "type": "Point", "coordinates": [ 9.137516034720001, 45.439083975400003 ] } },
{ "type": "Feature", "properties": { "<RowID>": "Row627", "ANNOSCOL": 1415, "CODICE": 3136, "DENOMINAZIONE": "DANTE ALIGHIERI", "GRADO": "Scuola Secondaria", "TIPO": "Statale", "PARITARIA": "No", "INDIRIZZO": "Via LUIGI SCROSATI 3", "CODVIA": 6488, "CIVICO": "3", "MUNICIPIO": 6, "ID_NIL": 52, "NIL": "BANDE NERE", "LONG_X_4326": 9.1396548730999996, "LAT_Y_4326": 45.4536283001, "Location": "(45.4536283001, 9.1396548731)", "GeoJSON": { "type": "FeatureCollection", "features": [ { "id": "0", "type": "Feature", "properties": { }, "geometry": { "type": "Point", "coordinates": [ 9.1396548731, 45.4536283001 ] }, "bbox": [ 9.1396548731, 45.4536283001, 9.1396548731, 45.4536283001 ] } ], "bbox": [ 9.1396548731, 45.4536283001, 9.1396548731, 45.4536283001 ] } }, "geometry": { "type": "Point", "coordinates": [ 9.1396548731, 45.4536283001 ] } },
{ "type": "Feature", "properties": { "<RowID>": "Row628", "ANNOSCOL": 1415, "CODICE": 3137, "DENOMINAZIONE": "Campolodigiano", "GRADO": "Scuola Secondaria", "TIPO": "Statale", "PARITARIA": "No", "INDIRIZZO": "Via DEGLI ANEMONI 10", "CODVIA": 6718, "CIVICO": "10", "MUNICIPIO": 6, "ID_NIL": 53, "NIL": "LORENTEGGIO", "LONG_X_4326": 9.1296130895352263, "LAT_Y_4326": 45.454636530341524, "Location": "(45.454636530341524, 9.129613089535226)", "GeoJSON": { "type": "FeatureCollection", "features": [ { "id": "0", "type": "Feature", "properties": { }, "geometry": { "type": "Point", "coordinates": [ 9.129613089535226, 45.454636530341524 ] }, "bbox": [ 9.129613089535226, 45.454636530341524, 9.129613089535226, 45.454636530341524 ] } ], "bbox": [ 9.129613089535226, 45.454636530341524, 9.129613089535226, 45.454636530341524 ] } }, "geometry": { "type": "Point", "coordinates": [ 9.129613089535226, 45.454636530341524 ] } },
{ "type": "Feature", "properties": { "<RowID>": "Row629", "ANNOSCOL": 1415, "CODICE": 3138, "DENOMINAZIONE": "CARDARELLI", "GRADO": "Scuola Secondaria", "TIPO": "Statale", "PARITARIA": "No", "INDIRIZZO": "Via LUIGI SCROSATI 4", "CODVIA": 6488, "CIVICO": "4", "MUNICIPIO": 6, "ID_NIL": 52, "NIL": "BANDE NERE", "LONG_X_4326": 9.1393780428699998, "LAT_Y_4326": 45.453856593700003, "Location": "(45.4538565937, 9.13937804287)", "GeoJSON": { "type": "FeatureCollection", "features": [ { "id": "0", "type": "Feature", "properties": { }, "geometry": { "type": "Point", "coordinates": [ 9.13937804287, 45.4538565937 ] }, "bbox": [ 9.13937804287, 45.4538565937, 9.13937804287, 45.4538565937 ] } ], "bbox": [ 9.13937804287, 45.4538565937, 9.13937804287, 45.4538565937 ] } }, "geometry": { "type": "Point", "coordinates": [ 9.13937804287, 45.453856593700003 ] } },
{ "type": "Feature", "properties": { "<RowID>": "Row630", "ANNOSCOL": 1415, "CODICE": 3141, "DENOMINAZIONE": "RINASCITA - LIVI", "GRADO": "Scuola Secondaria", "TIPO": "Statale", "PARITARIA": "No", "INDIRIZZO": "Via ROSALBA CARRIERA 12", "CODVIA": 5426, "CIVICO": "12", "MUNICIPIO": 6, "ID_NIL": 49, "NIL": "GIAMBELLINO", "LONG_X_4326": 9.1434534280299999, "LAT_Y_4326": 45.447146254000003, "Location": "(45.447146254, 9.14345342803)", "GeoJSON": { "type": "FeatureCollection", "features": [ { "id": "0", "type": "Feature", "properties": { }, "geometry": { "type": "Point", "coordinates": [ 9.14345342803, 45.447146254 ] }, "bbox": [ 9.14345342803, 45.447146254, 9.14345342803, 45.447146254 ] } ], "bbox": [ 9.14345342803, 45.447146254, 9.14345342803, 45.447146254 ] } }, "geometry": { "type": "Point", "coordinates": [ 9.14345342803, 45.447146254 ] } },
{ "type": "Feature", "properties": { "<RowID>": "Row631", "ANNOSCOL": 1415, "CODICE": 3144, "DENOMINAZIONE": "SANT'ANGELA MERICI", "GRADO": "Scuola Secondaria", "TIPO": "Ente religioso", "PARITARIA": "SI", "INDIRIZZO": "Via VESPRI SICILIANI 55", "CODVIA": 5137, "CIVICO": "55", "MUNICIPIO": 6, "ID_NIL": 49, "NIL": "GIAMBELLINO", "LONG_X_4326": 9.1464283697699997, "LAT_Y_4326": 45.451725262799997, "Location": "(45.4517252628, 9.14642836977)", "GeoJSON": { "type": "FeatureCollection", "features": [ { "id": "0", "type": "Feature", "properties": { }, "geometry": { "type": "Point", "coordinates": [ 9.14642836977, 45.4517252628 ] }, "bbox": [ 9.14642836977, 45.4517252628, 9.14642836977, 45.4517252628 ] } ], "bbox": [ 9.14642836977, 45.4517252628, 9.14642836977, 45.4517252628 ] } }, "geometry": { "type": "Point", "coordinates": [ 9.14642836977, 45.451725262799997 ] } },
{ "type": "Feature", "properties": { "<RowID>": "Row632", "ANNOSCOL": 1415, "CODICE": 3145, "DENOMINAZIONE": "SCUOLA COMUNITA' EBRAICA", "GRADO": "Scuola Secondaria", "TIPO": "Ente privato laico", "PARITARIA": "SI", "INDIRIZZO": "Via SALLY MAYER 4", "CODVIA": 6810, "CIVICO": "4", "MUNICIPIO": 6, "ID_NIL": 52, "NIL": "BANDE NERE", "LONG_X_4326": 9.1376685318199993, "LAT_Y_4326": 45.455795266099997, "Location": "(45.4557952661, 9.13766853182)", "GeoJSON": { "type": "FeatureCollection", "features": [ { "id": "0", "type": "Feature", "properties": { }, "geometry": { "type": "Point", "coordinates": [ 9.13766853182, 45.4557952661 ] }, "bbox": [ 9.13766853182, 45.4557952661, 9.13766853182, 45.4557952661 ] } ], "bbox": [ 9.13766853182, 45.4557952661, 9.13766853182, 45.4557952661 ] } }, "geometry": { "type": "Point", "coordinates": [ 9.137668531819999, 45.455795266099997 ] } },
{ "type": "Feature", "properties": { "<RowID>": "Row633", "ANNOSCOL": 1415, "CODICE": 3147, "DENOMINAZIONE": "IQBAL MASIH", "GRADO": "Scuola Secondaria", "TIPO": "Statale", "PARITARIA": "No", "INDIRIZZO": "Via BIANCA MILESI 4", "CODVIA": 6676, "CIVICO": "4", "MUNICIPIO": 7, "ID_NIL": 56, "NIL": "FORZE ARMATE", "LONG_X_4326": 9.10310990356, "LAT_Y_4326": 45.460315163600001, "Location": "(45.4603151636, 9.10310990356)", "GeoJSON": { "type": "FeatureCollection", "features": [ { "id": "0", "type": "Feature", "properties": { }, "geometry": { "type": "Point", "coordinates": [ 9.10310990356, 45.4603151636 ] }, "bbox": [ 9.10310990356, 45.4603151636, 9.10310990356, 45.4603151636 ] } ], "bbox": [ 9.10310990356, 45.4603151636, 9.10310990356, 45.4603151636 ] } }, "geometry": { "type": "Point", "coordinates": [ 9.10310990356, 45.460315163600001 ] } },
{ "type": "Feature", "properties": { "<RowID>": "Row634", "ANNOSCOL": 1415, "CODICE": 3148, "DENOMINAZIONE": "CESARE CORRENTI", "GRADO": "Scuola Secondaria", "TIPO": "Statale", "PARITARIA": "No", "INDIRIZZO": "Via DELLE BETULLE 17", "CODVIA": 6828, "CIVICO": "17", "MUNICIPIO": 7, "ID_NIL": 55, "NIL": "BAGGIO - Q.RE DEGLI OLMI - Q.RE VALSESIA", "LONG_X_4326": 9.0810620619600009, "LAT_Y_4326": 45.452709797600001, "Location": "(45.4527097976, 9.08106206196)", "GeoJSON": { "type": "FeatureCollection", "features": [ { "id": "0", "type": "Feature", "properties": { }, "geometry": { "type": "Point", "coordinates": [ 9.08106206196, 45.4527097976 ] }, "bbox": [ 9.08106206196, 45.4527097976, 9.08106206196, 45.4527097976 ] } ], "bbox": [ 9.08106206196, 45.4527097976, 9.08106206196, 45.4527097976 ] } }, "geometry": { "type": "Point", "coordinates": [ 9.081062061960001, 45.452709797600001 ] } },
{ "type": "Feature", "properties": { "<RowID>": "Row635", "ANNOSCOL": 1415, "CODICE": 3149, "DENOMINAZIONE": "DE MARCHI JUNIOR", "GRADO": "Scuola Secondaria", "TIPO": "Statale", "PARITARIA": "No", "INDIRIZZO": "Via CRIMEA 22", "CODVIA": 6417, "CIVICO": "22", "MUNICIPIO": 7, "ID_NIL": 52, "NIL": "BANDE NERE", "LONG_X_4326": 9.1302072436500001, "LAT_Y_4326": 45.4610458784, "Location": "(45.4610458784, 9.13020724365)", "GeoJSON": { "type": "FeatureCollection", "features": [ { "id": "0", "type": "Feature", "properties": { }, "geometry": { "type": "Point", "coordinates": [ 9.13020724365, 45.4610458784 ] }, "bbox": [ 9.13020724365, 45.4610458784, 9.13020724365, 45.4610458784 ] } ], "bbox": [ 9.13020724365, 45.4610458784, 9.13020724365, 45.4610458784 ] } }, "geometry": { "type": "Point", "coordinates": [ 9.13020724365, 45.4610458784 ] } },
{ "type": "Feature", "properties": { "<RowID>": "Row636", "ANNOSCOL": 1415, "CODICE": 3151, "DENOMINAZIONE": "BENEDETTO MARCELLO", "GRADO": "Scuola Secondaria", "TIPO": "Statale", "PARITARIA": "No", "INDIRIZZO": "Via BENJAMIN CONSTANT 19", "CODVIA": 6083, "CIVICO": "19", "MUNICIPIO": 7, "ID_NIL": 61, "NIL": "QUARTO CAGNINO", "LONG_X_4326": 9.1139331330900006, "LAT_Y_4326": 45.4721999844, "Location": "(45.4721999844, 9.11393313309)", "GeoJSON": { "type": "FeatureCollection", "features": [ { "id": "0", "type": "Feature", "properties": { }, "geometry": { "type": "Point", "coordinates": [ 9.11393313309, 45.4721999844 ] }, "bbox": [ 9.11393313309, 45.4721999844, 9.11393313309, 45.4721999844 ] } ], "bbox": [ 9.11393313309, 45.4721999844, 9.11393313309, 45.4721999844 ] } }, "geometry": { "type": "Point", "coordinates": [ 9.113933133090001, 45.4721999844 ] } },
{ "type": "Feature", "properties": { "<RowID>": "Row637", "ANNOSCOL": 1415, "CODICE": 3152, "DENOMINAZIONE": "TOMMASO GULLI", "GRADO": "Scuola Secondaria", "TIPO": "Statale", "PARITARIA": "No", "INDIRIZZO": "Via PIERO MARTINETTI 25", "CODVIA": 6339, "CIVICO": "25", "MUNICIPIO": 7, "ID_NIL": 52, "NIL": "BANDE NERE", "LONG_X_4326": 9.1316087026300004, "LAT_Y_4326": 45.466489647099998, "Location": "(45.4664896471, 9.13160870263)", "GeoJSON": { "type": "FeatureCollection", "features": [ { "id": "0", "type": "Feature", "properties": { }, "geometry": { "type": "Point", "coordinates": [ 9.13160870263, 45.4664896471 ] }, "bbox": [ 9.13160870263, 45.4664896471, 9.13160870263, 45.4664896471 ] } ], "bbox": [ 9.13160870263, 45.4664896471, 9.13160870263, 45.4664896471 ] } }, "geometry": { "type": "Point", "coordinates": [ 9.13160870263, 45.466489647099998 ] } },
{ "type": "Feature", "properties": { "<RowID>": "Row638", "ANNOSCOL": 1415, "CODICE": 3153, "DENOMINAZIONE": "PRIMO LEVI", "GRADO": "Scuola Secondaria", "TIPO": "Statale", "PARITARIA": "No", "INDIRIZZO": "Via PISTOIA 30", "CODVIA": 6773, "CIVICO": "30", "MUNICIPIO": 7, "ID_NIL": 55, "NIL": "BAGGIO - Q.RE DEGLI OLMI - Q.RE VALSESIA", "LONG_X_4326": 9.0894221846499992, "LAT_Y_4326": 45.462501054800001, "Location": "(45.4625010548, 9.08942218465)", "GeoJSON": { "type": "FeatureCollection", "features": [ { "id": "0", "type": "Feature", "properties": { }, "geometry": { "type": "Point", "coordinates": [ 9.08942218465, 45.4625010548 ] }, "bbox": [ 9.08942218465, 45.4625010548, 9.08942218465, 45.4625010548 ] } ], "bbox": [ 9.08942218465, 45.4625010548, 9.08942218465, 45.4625010548 ] } }, "geometry": { "type": "Point", "coordinates": [ 9.089422184649999, 45.462501054800001 ] } },
{ "type": "Feature", "properties": { "<RowID>": "Row639", "ANNOSCOL": 1415, "CODICE": 3156, "DENOMINAZIONE": "GIOSUE' BORSI", "GRADO": "Scuola Secondaria", "TIPO": "Statale", "PARITARIA": "No", "INDIRIZZO": "Via UGO OJETTI 13", "CODVIA": 7516, "CIVICO": "13", "MUNICIPIO": 8, "ID_NIL": 65, "NIL": "Q.RE GALLARATESE - Q.RE SAN LEONARDO - LAMPUGNANO", "LONG_X_4326": 9.1122659803000001, "LAT_Y_4326": 45.494065284500003, "Location": "(45.4940652845, 9.1122659803)", "GeoJSON": { "type": "FeatureCollection", "features": [ { "id": "0", "type": "Feature", "properties": { }, "geometry": { "type": "Point", "coordinates": [ 9.1122659803, 45.4940652845 ] }, "bbox": [ 9.1122659803, 45.4940652845, 9.1122659803, 45.4940652845 ] } ], "bbox": [ 9.1122659803, 45.4940652845, 9.1122659803, 45.4940652845 ] } }, "geometry": { "type": "Point", "coordinates": [ 9.1122659803, 45.494065284500003 ] } },
{ "type": "Feature", "properties": { "<RowID>": "Row640", "ANNOSCOL": 1415, "CODICE": 3157, "DENOMINAZIONE": "EUGENIO COLORNI", "GRADO": "Scuola Secondaria", "TIPO": "Statale", "PARITARIA": "No", "INDIRIZZO": "Via PAOLO UCCELLO 1", "CODVIA": 6421, "CIVICO": "1", "MUNICIPIO": 8, "ID_NIL": 58, "NIL": "DE ANGELI - MONTE ROSA", "LONG_X_4326": 9.1470449733799999, "LAT_Y_4326": 45.480803018700001, "Location": "(45.4808030187, 9.14704497338)", "GeoJSON": { "type": "FeatureCollection", "features": [ { "id": "0", "type": "Feature", "properties": { }, "geometry": { "type": "Point", "coordinates": [ 9.14704497338, 45.4808030187 ] }, "bbox": [ 9.14704497338, 45.4808030187, 9.14704497338, 45.4808030187 ] } ], "bbox": [ 9.14704497338, 45.4808030187, 9.14704497338, 45.4808030187 ] } }, "geometry": { "type": "Point", "coordinates": [ 9.14704497338, 45.480803018700001 ] } },
{ "type": "Feature", "properties": { "<RowID>": "Row641", "ANNOSCOL": 1415, "CODICE": 3160, "DENOMINAZIONE": "SAN GIUSEPPE CALASANZIO", "GRADO": "Scuola Secondaria", "TIPO": "Statale", "PARITARIA": "No", "INDIRIZZO": "Piazza AXUM 5", "CODVIA": 6515, "CIVICO": "5", "MUNICIPIO": 7, "ID_NIL": 60, "NIL": "STADIO - IPPODROMI", "LONG_X_4326": 9.1231161269500003, "LAT_Y_4326": 45.4753384897, "Location": "(45.4753384897, 9.12311612695)", "GeoJSON": { "type": "FeatureCollection", "features": [ { "id": "0", "type": "Feature", "properties": { }, "geometry": { "type": "Point", "coordinates": [ 9.12311612695, 45.4753384897 ] }, "bbox": [ 9.12311612695, 45.4753384897, 9.12311612695, 45.4753384897 ] } ], "bbox": [ 9.12311612695, 45.4753384897, 9.12311612695, 45.4753384897 ] } }, "geometry": { "type": "Point", "coordinates": [ 9.12311612695, 45.4753384897 ] } },
{ "type": "Feature", "properties": { "<RowID>": "Row642", "ANNOSCOL": 1415, "CODICE": 3161, "DENOMINAZIONE": "MATTEO RICCI", "GRADO": "Scuola Secondaria", "TIPO": "Statale", "PARITARIA": "No", "INDIRIZZO": "Via LOVERE 4", "CODVIA": 6453, "CIVICO": "4", "MUNICIPIO": 8, "ID_NIL": 66, "NIL": "QT 8", "LONG_X_4326": 9.1386444804100009, "LAT_Y_4326": 45.484616229899999, "Location": "(45.4846162299, 9.13864448041)", "GeoJSON": { "type": "FeatureCollection", "features": [ { "id": "0", "type": "Feature", "properties": { }, "geometry": { "type": "Point", "coordinates": [ 9.13864448041, 45.4846162299 ] }, "bbox": [ 9.13864448041, 45.4846162299, 9.13864448041, 45.4846162299 ] } ], "bbox": [ 9.13864448041, 45.4846162299, 9.13864448041, 45.4846162299 ] } }, "geometry": { "type": "Point", "coordinates": [ 9.138644480410001, 45.484616229899999 ] } },
{ "type": "Feature", "properties": { "<RowID>": "Row643", "ANNOSCOL": 1415, "CODICE": 3163, "DENOMINAZIONE": "COZZI - QUARENGHI", "GRADO": "Scuola Secondaria", "TIPO": "Statale", "PARITARIA": "No", "INDIRIZZO": "Via GIACOMO QUARENGHI 14", "CODVIA": 7478, "CIVICO": "14", "MUNICIPIO": 8, "ID_NIL": 65, "NIL": "Q.RE GALLARATESE - Q.RE SAN LEONARDO - LAMPUGNANO", "LONG_X_4326": 9.1191051312399996, "LAT_Y_4326": 45.494946143900002, "Location": "(45.4949461439, 9.11910513124)", "GeoJSON": { "type": "FeatureCollection", "features": [ { "id": "0", "type": "Feature", "properties": { }, "geometry": { "type": "Point", "coordinates": [ 9.11910513124, 45.4949461439 ] }, "bbox": [ 9.11910513124, 45.4949461439, 9.11910513124, 45.4949461439 ] } ], "bbox": [ 9.11910513124, 45.4949461439, 9.11910513124, 45.4949461439 ] } }, "geometry": { "type": "Point", "coordinates": [ 9.11910513124, 45.494946143900002 ] } },